index,transportmean_name,line_number,line_name,order_number,stop_name,stop_id,stop_code,stop_desc,stop_lat,stop_lon,zone_id,stop_url,location_type,parent_station,stop_timezone,wheelchair_boarding
0,METRO,1,Pinar de Chamartín-Valdecarros,0,b'pinar de chamartin',par_4_263,263.0,Calle de Arturo Soria 330,40.480140000000006,-3.6668,A,http://www.crtm.es,0.0,,Europe/Madrid,2.0
0,METRO,1,Pinar de Chamartín-Valdecarros,0,b'pinar de chamartin',est_4_263,263.0,Calle de Arturo Soria 330,40.480140000000006,-3.6668,A,http://www.crtm.es,1.0,,Europe/Madrid,2.0
0,METRO,1,Pinar de Chamartín-Valdecarros,0,b'pinar de chamartin',par_4_266,266.0,Calle de Arturo Soria 330,40.480140000000006,-3.66676,A,http://www.crtm.es,0.0,est_4_263,,2.0
1,METRO,1,Pinar de Chamartín-Valdecarros,1,b'bambu',par_4_262,262.0,Calle del Bambú 14,40.476820000000004,-3.67637,A,http://www.crtm.es,0.0,,Europe/Madrid,2.0
1,METRO,1,Pinar de Chamartín-Valdecarros,1,b'bambu',acc_4_262_643,262.0,Calle del Bambú 14,40.47683,-3.67642,,http://www.crtm.es,2.0,est_4_262,,0.0
1,METRO,1,Pinar de Chamartín-Valdecarros,1,b'bambu',est_4_262,262.0,Calle del Bambú 14,40.476820000000004,-3.67637,A,http://www.crtm.es,1.0,,Europe/Madrid,2.0
2,METRO,1,Pinar de Chamartín-Valdecarros,2,b'chamartin',par_4_261,261.0,Calle de Agustín de Foxá 40,40.47203,-3.6825900000000003,A,http://www.crtm.es,0.0,est_90_25,,2.0
2,METRO,1,Pinar de Chamartín-Valdecarros,2,b'chamartin',acc_4_261_474,261.0,Calle del Padre Francisco Palau y Quer SN,40.47314,-3.6830800000000004,,http://www.crtm.es,2.0,est_90_25,,0.0
2,METRO,1,Pinar de Chamartín-Valdecarros,2,b'chamartin',est_90_25,25.0,Calle de Agustín de Foxá 40,40.4721,-3.68269,A,http://www.crtm.es,1.0,,Europe/Madrid,0.0
2,METRO,1,Pinar de Chamartín-Valdecarros,2,b'chamartin',par_4_189,189.0,Calle de Agustín de Foxá 40,40.4721,-3.6825900000000003,A,http://www.crtm.es,0.0,est_90_25,,2.0
3,METRO,1,Pinar de Chamartín-Valdecarros,3,b'plaza de castilla',par_4_1,1.0,Paseo de la Castellana 189,40.4669,-3.68917,A,http://www.crtm.es,0.0,est_90_21,,0.0
3,METRO,1,Pinar de Chamartín-Valdecarros,3,b'plaza de castilla',acc_4_1_1,1.0,Paseo de la Castellana 189,40.46682,-3.6891800000000003,,http://www.crtm.es,2.0,est_90_21,,0.0
3,METRO,1,Pinar de Chamartín-Valdecarros,3,b'plaza de castilla',par_4_164,164.0,Paseo de la Castellana 189,40.4669,-3.6891300000000005,A,http://www.crtm.es,0.0,est_90_21,,0.0
3,METRO,1,Pinar de Chamartín-Valdecarros,3,b'plaza de castilla',par_4_190,190.0,Paseo de la Castellana 216,40.4669,-3.68909,A,http://www.crtm.es,0.0,est_90_21,,0.0
4,METRO,1,Pinar de Chamartín-Valdecarros,4,b'valdeacederas',par_4_2,2.0,Calle de Bravo Murillo 332,40.464420000000004,-3.69506,A,http://www.crtm.es,0.0,,Europe/Madrid,0.0
4,METRO,1,Pinar de Chamartín-Valdecarros,4,b'valdeacederas',est_4_2,2.0,Calle de Bravo Murillo 332,40.464420000000004,-3.69506,A,http://www.crtm.es,1.0,,Europe/Madrid,0.0
5,METRO,1,Pinar de Chamartín-Valdecarros,5,b'tetuan',par_4_3,3.0,Calle de Bravo Murillo 264,40.46055,-3.69825,A,http://www.crtm.es,0.0,,Europe/Madrid,0.0
5,METRO,1,Pinar de Chamartín-Valdecarros,5,b'tetuan',est_4_3,3.0,Calle de Bravo Murillo 264,40.46055,-3.69825,A,http://www.crtm.es,1.0,,Europe/Madrid,0.0
6,METRO,1,Pinar de Chamartín-Valdecarros,6,b'estrecho',par_4_4,4.0,Calle de Bravo Murillo 191,40.45429,-3.7030199999999995,A,http://www.crtm.es,0.0,,Europe/Madrid,0.0
6,METRO,1,Pinar de Chamartín-Valdecarros,6,b'estrecho',est_4_4,4.0,Calle de Bravo Murillo 191,40.45429,-3.7030199999999995,A,http://www.crtm.es,1.0,,Europe/Madrid,0.0
7,METRO,1,Pinar de Chamartín-Valdecarros,7,b'alvarado',par_4_5,5.0,Calle de Bravo Murillo 138,40.45033,-3.7033099999999997,A,http://www.crtm.es,0.0,,Europe/Madrid,0.0
7,METRO,1,Pinar de Chamartín-Valdecarros,7,b'alvarado',est_4_5,5.0,Calle de Bravo Murillo 138,40.45033,-3.7033099999999997,A,http://www.crtm.es,1.0,,Europe/Madrid,0.0
8,METRO,1,Pinar de Chamartín-Valdecarros,8,b'cuatro caminos',par_4_6,6.0,Gta de Cuatro Caminos 2,40.44697,-3.7039699999999995,A,http://www.crtm.es,0.0,,Europe/Madrid,2.0
8,METRO,1,Pinar de Chamartín-Valdecarros,8,b'cuatro caminos',est_4_6,6.0,Gta de Cuatro Caminos 2,40.44697,-3.7039699999999995,A,http://www.crtm.es,1.0,,Europe/Madrid,2.0
8,METRO,1,Pinar de Chamartín-Valdecarros,8,b'cuatro caminos',par_4_42,42.0,Gta de Cuatro Caminos 10,40.44697,-3.7039199999999997,A,http://www.crtm.es,0.0,est_4_6,,2.0
8,METRO,1,Pinar de Chamartín-Valdecarros,8,b'cuatro caminos',par_4_121,121.0,Gta de Cuatro Caminos 9,40.44697,-3.7038699999999998,A,http://www.crtm.es,0.0,est_4_6,,2.0
9,METRO,1,Pinar de Chamartín-Valdecarros,9,b'rios rosas',par_4_7,7.0,Calle de Ríos Rosas 22,40.44198,-3.7013300000000005,A,http://www.crtm.es,0.0,,Europe/Madrid,0.0
9,METRO,1,Pinar de Chamartín-Valdecarros,9,b'rios rosas',est_4_7,7.0,Calle de Ríos Rosas 22,40.44198,-3.7013300000000005,A,http://www.crtm.es,1.0,,Europe/Madrid,0.0
10,METRO,1,Pinar de Chamartín-Valdecarros,10,b'iglesia',par_4_8,8.0,Gta del Pintor Sorolla 2,40.43492,-3.69898,A,http://www.crtm.es,0.0,,Europe/Madrid,2.0
10,METRO,1,Pinar de Chamartín-Valdecarros,10,b'iglesia',est_4_8,8.0,Gta del Pintor Sorolla 2,40.43492,-3.69898,A,http://www.crtm.es,1.0,,Europe/Madrid,2.0
11,METRO,1,Pinar de Chamartín-Valdecarros,11,b'bilbao',par_4_9,9.0,Calle de Sagasta 2,40.42906,-3.7021800000000002,A,http://www.crtm.es,0.0,,Europe/Madrid,0.0
11,METRO,1,Pinar de Chamartín-Valdecarros,11,b'bilbao',est_4_9,9.0,Calle de Sagasta 2,40.42906,-3.7021800000000002,A,http://www.crtm.es,1.0,,Europe/Madrid,0.0
11,METRO,1,Pinar de Chamartín-Valdecarros,11,b'bilbao',par_4_56,56.0,Calle de Sagasta 5,40.42885,-3.70114,A,http://www.crtm.es,0.0,est_4_9,,0.0
12,METRO,1,Pinar de Chamartín-Valdecarros,12,b'tribunal',par_4_10,10.0,Calle de Fuencarral 81,40.426190000000005,-3.7011,A,http://www.crtm.es,0.0,,Europe/Madrid,0.0
12,METRO,1,Pinar de Chamartín-Valdecarros,12,b'tribunal',est_4_10,10.0,Calle de Fuencarral 81,40.426190000000005,-3.7011,A,http://www.crtm.es,1.0,,Europe/Madrid,0.0
12,METRO,1,Pinar de Chamartín-Valdecarros,12,b'tribunal',par_4_196,196.0,Calle de la Palma 5,40.426,-3.7020800000000005,A,http://www.crtm.es,0.0,est_4_10,,0.0
13,METRO,1,Pinar de Chamartín-Valdecarros,13,b'gran via',par_4_11,11.0,Calle   Gran Vía 23,40.42001,-3.7018,A,http://www.crtm.es,0.0,,Europe/Madrid,0.0
13,METRO,1,Pinar de Chamartín-Valdecarros,13,b'gran via',acc_4_11_37,11.0,Calle  Gran Vía 21,40.419909999999994,-3.7013,,http://www.crtm.es,2.0,est_4_11,,0.0
13,METRO,1,Pinar de Chamartín-Valdecarros,13,b'gran via',acc_4_11_38,11.0,Calle  Gran Vía 23,40.41992,-3.70183,,http://www.crtm.es,2.0,est_4_11,,0.0
13,METRO,1,Pinar de Chamartín-Valdecarros,13,b'gran via',est_4_11,11.0,Calle   Gran Vía 23,40.42001,-3.7018,A,http://www.crtm.es,1.0,,Europe/Madrid,0.0
13,METRO,1,Pinar de Chamartín-Valdecarros,13,b'gran via',acc_4_37_117,37.0,Calle  Gran Vía 51,40.4213,-3.70778,,http://www.crtm.es,2.0,est_4_37,,0.0
13,METRO,1,Pinar de Chamartín-Valdecarros,13,b'gran via',par_4_87,87.0,Calle   Gran Vía 23,40.419990000000006,-3.7018,A,http://www.crtm.es,0.0,est_4_11,,0.0
14,METRO,1,Pinar de Chamartín-Valdecarros,14,b'sol',par_4_12,12.0,Plaza de la Puerta del Sol 6,40.41688,-3.7032599999999998,A,http://www.crtm.es,0.0,est_90_58,,1.0
14,METRO,1,Pinar de Chamartín-Valdecarros,14,b'sol',par_4_35,35.0,Plaza de la Puerta del Sol 6,40.41685,-3.7032599999999998,A,http://www.crtm.es,0.0,est_90_58,,1.0
14,METRO,1,Pinar de Chamartín-Valdecarros,14,b'sol',par_4_48,48.0,Plaza de la Puerta del Sol 6,40.41682,-3.7032599999999998,A,http://www.crtm.es,0.0,est_90_58,,1.0
15,METRO,1,Pinar de Chamartín-Valdecarros,15,b'tirso de molina',par_4_13,13.0,Plaza de Tirso de Molina 7,40.41235,-3.70466,A,http://www.crtm.es,0.0,,Europe/Madrid,0.0
15,METRO,1,Pinar de Chamartín-Valdecarros,15,b'tirso de molina',est_4_13,13.0,Plaza de Tirso de Molina 7,40.41235,-3.70466,A,http://www.crtm.es,1.0,,Europe/Madrid,0.0
16,METRO,1,Pinar de Chamartín-Valdecarros,16,b'anton martin',par_4_14,14.0,Calle de Atocha 50,40.412459999999996,-3.6993699999999996,A,http://www.crtm.es,0.0,,Europe/Madrid,0.0
16,METRO,1,Pinar de Chamartín-Valdecarros,16,b'anton martin',est_4_14,14.0,Calle de Atocha 50,40.412459999999996,-3.6993699999999996,A,http://www.crtm.es,1.0,,Europe/Madrid,0.0
17,METRO,1,Pinar de Chamartín-Valdecarros,17,b'estacion del arte',par_4_15,15.0,Plaza del Emperador Carlos V 11,40.40885,-3.6924900000000003,A,http://www.crtm.es,0.0,,Europe/Madrid,0.0
17,METRO,1,Pinar de Chamartín-Valdecarros,17,b'estacion del arte',est_4_15,15.0,Plaza del Emperador Carlos V 11,40.40885,-3.6924900000000003,A,http://www.crtm.es,1.0,,Europe/Madrid,0.0
18,METRO,1,Pinar de Chamartín-Valdecarros,18,b'atocha renfe',,,,,,,,,,,
19,METRO,1,Pinar de Chamartín-Valdecarros,19,b'menendez pelayo',par_4_17,17.0,Avda de la Ciudad de Barcelona 23,40.40445,-3.6809800000000004,A,http://www.crtm.es,0.0,,Europe/Madrid,0.0
19,METRO,1,Pinar de Chamartín-Valdecarros,19,b'menendez pelayo',est_4_17,17.0,Avda de la Ciudad de Barcelona 23,40.40445,-3.6809800000000004,A,http://www.crtm.es,1.0,,Europe/Madrid,0.0
20,METRO,1,Pinar de Chamartín-Valdecarros,20,b'pacifico',par_4_18,18.0,Avda de la Ciudad de Barcelona 79,40.40126,-3.6751400000000003,A,http://www.crtm.es,0.0,,Europe/Madrid,0.0
20,METRO,1,Pinar de Chamartín-Valdecarros,20,b'pacifico',est_4_18,18.0,Avda de la Ciudad de Barcelona 79,40.40126,-3.6751400000000003,A,http://www.crtm.es,1.0,,Europe/Madrid,0.0
20,METRO,1,Pinar de Chamartín-Valdecarros,20,b'pacifico',par_4_112,112.0,Calle de Andalucía 2,40.40207,-3.67386,A,http://www.crtm.es,0.0,est_4_18,,0.0
21,METRO,1,Pinar de Chamartín-Valdecarros,21,b'puente de vallecas',par_4_19,19.0,Avda de la Albufera 1,40.39819,-3.66906,A,http://www.crtm.es,0.0,,Europe/Madrid,0.0
21,METRO,1,Pinar de Chamartín-Valdecarros,21,b'puente de vallecas',est_4_19,19.0,Avda de la Albufera 1,40.39819,-3.66906,A,http://www.crtm.es,1.0,,Europe/Madrid,0.0
22,METRO,1,Pinar de Chamartín-Valdecarros,22,b'nueva numancia',par_4_20,20.0,Avda de la Albufera 70,40.395540000000004,-3.66414,A,http://www.crtm.es,0.0,,Europe/Madrid,0.0
22,METRO,1,Pinar de Chamartín-Valdecarros,22,b'nueva numancia',est_4_20,20.0,Avda de la Albufera 70,40.395540000000004,-3.66414,A,http://www.crtm.es,1.0,,Europe/Madrid,0.0
23,METRO,1,Pinar de Chamartín-Valdecarros,23,b'portazgo',par_4_21,21.0,Avda de la Albufera 131,40.39266,-3.6586800000000004,A,http://www.crtm.es,0.0,,Europe/Madrid,0.0
23,METRO,1,Pinar de Chamartín-Valdecarros,23,b'portazgo',est_4_21,21.0,Avda de la Albufera 131,40.39266,-3.6586800000000004,A,http://www.crtm.es,1.0,,Europe/Madrid,0.0
24,METRO,1,Pinar de Chamartín-Valdecarros,24,b'buenos aires',par_4_22,22.0,Avda de la Albufera 179,40.39156,-3.6539099999999998,A,http://www.crtm.es,0.0,,Europe/Madrid,0.0
24,METRO,1,Pinar de Chamartín-Valdecarros,24,b'buenos aires',acc_4_22_75,22.0,Avda de la Albufera 140,40.3914,-3.65394,,http://www.crtm.es,2.0,est_4_22,,0.0
24,METRO,1,Pinar de Chamartín-Valdecarros,24,b'buenos aires',est_4_22,22.0,Avda de la Albufera 179,40.39156,-3.6539099999999998,A,http://www.crtm.es,1.0,,Europe/Madrid,0.0
25,METRO,1,Pinar de Chamartín-Valdecarros,25,b'alto del arenal',par_4_23,23.0,Calle de Santillana del Mar 21,40.38977,-3.6452199999999997,A,http://www.crtm.es,0.0,,Europe/Madrid,2.0
25,METRO,1,Pinar de Chamartín-Valdecarros,25,b'alto del arenal',est_4_23,23.0,Calle de Santillana del Mar 21,40.38977,-3.6452199999999997,A,http://www.crtm.es,1.0,,Europe/Madrid,2.0
26,METRO,1,Pinar de Chamartín-Valdecarros,26,b'miguel hernandez',par_4_24,24.0,Calle de León Felipe 4 A,40.38732,-3.63951,A,http://www.crtm.es,0.0,,Europe/Madrid,2.0
26,METRO,1,Pinar de Chamartín-Valdecarros,26,b'miguel hernandez',est_4_24,24.0,Calle de León Felipe 4 A,40.38732,-3.63951,A,http://www.crtm.es,1.0,,Europe/Madrid,2.0
27,METRO,1,Pinar de Chamartín-Valdecarros,27,b'sierra de guadalupe',par_4_25,25.0,Avda de la Democracia 1,40.38216,-3.6247199999999995,A,http://www.crtm.es,0.0,,Europe/Madrid,2.0
27,METRO,1,Pinar de Chamartín-Valdecarros,27,b'sierra de guadalupe',est_4_25,25.0,Avda de la Democracia 1,40.38216,-3.6247199999999995,A,http://www.crtm.es,1.0,,Europe/Madrid,2.0
28,METRO,1,Pinar de Chamartín-Valdecarros,28,b'villa de vallecas',par_4_26,26.0,Paseo de Federico García Lorca 2,40.3796,-3.6213,A,http://www.crtm.es,0.0,,Europe/Madrid,2.0
28,METRO,1,Pinar de Chamartín-Valdecarros,28,b'villa de vallecas',est_4_26,26.0,Paseo de Federico García Lorca 2,40.3796,-3.6213,A,http://www.crtm.es,1.0,,Europe/Madrid,2.0
29,METRO,1,Pinar de Chamartín-Valdecarros,29,b'congosto',par_4_27,27.0,Calle del Congosto 48,40.37238,-3.61884,A,http://www.crtm.es,0.0,,Europe/Madrid,2.0
29,METRO,1,Pinar de Chamartín-Valdecarros,29,b'congosto',acc_4_27_90,27.0,Calle del Congosto 35,40.372,-3.6186599999999998,,http://www.crtm.es,2.0,est_4_27,,0.0
29,METRO,1,Pinar de Chamartín-Valdecarros,29,b'congosto',est_4_27,27.0,Calle del Congosto 48,40.37238,-3.61884,A,http://www.crtm.es,1.0,,Europe/Madrid,2.0
30,METRO,1,Pinar de Chamartín-Valdecarros,30,b'la gavia',par_4_293,293.0,Avda del Ensanche de Vallecas 16,40.37019,-3.61346,A,http://www.crtm.es,0.0,,Europe/Madrid,2.0
30,METRO,1,Pinar de Chamartín-Valdecarros,30,b'la gavia',est_4_293,293.0,Avda del Ensanche de Vallecas 16,40.37019,-3.61346,A,http://www.crtm.es,1.0,,Europe/Madrid,2.0
31,METRO,1,Pinar de Chamartín-Valdecarros,31,b'las suertes',par_4_294,294.0,Calle de Cañada del Santísimo 45,40.36323,-3.59953,A,http://www.crtm.es,0.0,,Europe/Madrid,2.0
31,METRO,1,Pinar de Chamartín-Valdecarros,31,b'las suertes',est_4_294,294.0,Calle de Cañada del Santísimo 45,40.36323,-3.59953,A,http://www.crtm.es,1.0,,Europe/Madrid,2.0
32,METRO,1,Pinar de Chamartín-Valdecarros,32,b'valdecarros',par_4_295,295.0,Avda del Ensanche de Vallecas 120 A,40.36007,-3.5931599999999997,A,http://www.crtm.es,0.0,,Europe/Madrid,2.0
32,METRO,1,Pinar de Chamartín-Valdecarros,32,b'valdecarros',est_4_295,295.0,Avda del Ensanche de Vallecas 120 A,40.36007,-3.5931599999999997,A,http://www.crtm.es,1.0,,Europe/Madrid,2.0
0,METRO,2,Las Rosas-Cuatro Caminos,0,b'las rosas',par_4_325,325.0,Paseo de Ginebra 35,40.42375,-3.60331,A,http://www.crtm.es,0.0,,Europe/Madrid,0.0
0,METRO,2,Las Rosas-Cuatro Caminos,0,b'las rosas',est_4_325,325.0,Paseo de Ginebra 35,40.42375,-3.60331,A,http://www.crtm.es,1.0,,Europe/Madrid,0.0
1,METRO,2,Las Rosas-Cuatro Caminos,1,b'avenida de guadalajara',acc_4_323_1062,323.0,Avda de Guadalajara 2,40.41864,-3.62319,,http://www.crtm.es,2.0,est_4_323,,0.0
1,METRO,2,Las Rosas-Cuatro Caminos,1,b'avenida de guadalajara',par_4_324,324.0,Avda de Guadalajara 110,40.42239,-3.61206,A,http://www.crtm.es,0.0,,Europe/Madrid,0.0
1,METRO,2,Las Rosas-Cuatro Caminos,1,b'avenida de guadalajara',est_4_324,324.0,Avda de Guadalajara 110,40.42239,-3.61206,A,http://www.crtm.es,1.0,,Europe/Madrid,0.0
2,METRO,2,Las Rosas-Cuatro Caminos,2,b'alsacia',par_4_323,323.0,Plaza de Alsacia S/N,40.41829,-3.62351,,http://www.crtm.es,0.0,,Europe/Madrid,0.0
2,METRO,2,Las Rosas-Cuatro Caminos,2,b'alsacia',est_4_323,323.0,Plaza de Alsacia S/N,40.41829,-3.62351,,http://www.crtm.es,1.0,,Europe/Madrid,0.0
3,METRO,2,Las Rosas-Cuatro Caminos,3,b'la almudena',par_4_322,322.0,Calle de Arriaga 75,40.42361,-3.6391400000000003,,http://www.crtm.es,0.0,,Europe/Madrid,0.0
3,METRO,2,Las Rosas-Cuatro Caminos,3,b'la almudena',est_4_322,322.0,Calle de Arriaga 75,40.42361,-3.6391400000000003,,http://www.crtm.es,1.0,,Europe/Madrid,0.0
4,METRO,2,Las Rosas-Cuatro Caminos,4,b'la elipa',par_4_260,260.0,Avda del Marqués de Corbera 58,40.42662,-3.6505199999999998,A,http://www.crtm.es,0.0,,Europe/Madrid,2.0
4,METRO,2,Las Rosas-Cuatro Caminos,4,b'la elipa',est_4_260,260.0,Avda del Marqués de Corbera 58,40.42662,-3.6505199999999998,A,http://www.crtm.es,1.0,,Europe/Madrid,2.0
5,METRO,2,Las Rosas-Cuatro Caminos,5,b'ventas',par_4_28,28.0,Calle de Alcalá 204,40.43088,-3.6636599999999997,A,http://www.crtm.es,0.0,,Europe/Madrid,0.0
5,METRO,2,Las Rosas-Cuatro Caminos,5,b'ventas',est_4_28,28.0,Calle de Alcalá 204,40.43088,-3.6636599999999997,A,http://www.crtm.es,1.0,,Europe/Madrid,0.0
5,METRO,2,Las Rosas-Cuatro Caminos,5,b'ventas',par_4_81,81.0,Calle de Alcalá 204,40.43088,-3.66361,A,http://www.crtm.es,0.0,est_4_28,,0.0
6,METRO,2,Las Rosas-Cuatro Caminos,6,b'manuel becerra',par_4_29,29.0,Plaza de Manuel Becerra 1,40.4279,-3.66926,A,http://www.crtm.es,0.0,,Europe/Madrid,0.0
6,METRO,2,Las Rosas-Cuatro Caminos,6,b'manuel becerra',est_4_29,29.0,Plaza de Manuel Becerra 1,40.4279,-3.66926,A,http://www.crtm.es,1.0,,Europe/Madrid,0.0
6,METRO,2,Las Rosas-Cuatro Caminos,6,b'manuel becerra',par_4_116,116.0,Plaza de Manuel Becerra 1,40.4279,-3.6692099999999996,A,http://www.crtm.es,0.0,est_4_29,,0.0
7,METRO,2,Las Rosas-Cuatro Caminos,7,b'goya',par_4_30,30.0,Calle de Alcalá 96,40.42455,-3.67591,A,http://www.crtm.es,0.0,,Europe/Madrid,2.0
7,METRO,2,Las Rosas-Cuatro Caminos,7,b'goya',est_4_30,30.0,Calle de Alcalá 96,40.42455,-3.67591,A,http://www.crtm.es,1.0,,Europe/Madrid,2.0
7,METRO,2,Las Rosas-Cuatro Caminos,7,b'goya',par_4_61,61.0,Calle de Goya 68,40.42481,-3.67685,A,http://www.crtm.es,0.0,est_4_30,,2.0
7,METRO,2,Las Rosas-Cuatro Caminos,7,b'goya',acc_4_214_586,214.0,Calle  Parque Vosa 35,40.32897,-3.86385,,http://www.crtm.es,2.0,est_4_214,,0.0
8,METRO,2,Las Rosas-Cuatro Caminos,8,b'principe de vergara',par_4_31,31.0,Calle de Alcalá 123,40.422940000000004,-3.6801199999999996,A,http://www.crtm.es,0.0,,Europe/Madrid,0.0
8,METRO,2,Las Rosas-Cuatro Caminos,8,b'principe de vergara',est_4_31,31.0,Calle de Alcalá 123,40.422940000000004,-3.6801199999999996,A,http://www.crtm.es,1.0,,Europe/Madrid,0.0
8,METRO,2,Las Rosas-Cuatro Caminos,8,b'principe de vergara',acc_4_168_435,168.0,Calle de Príncipe de Vergara 246,40.452329999999996,-3.67725,,http://www.crtm.es,2.0,est_4_168,,0.0
8,METRO,2,Las Rosas-Cuatro Caminos,8,b'principe de vergara',par_4_172,172.0,Calle del Príncipe de Vergara 12,40.42418,-3.68024,A,http://www.crtm.es,0.0,est_4_31,,0.0
9,METRO,2,Las Rosas-Cuatro Caminos,9,b'retiro',par_4_32,32.0,Calle de Alcalá 81,40.42031,-3.68624,A,http://www.crtm.es,0.0,,Europe/Madrid,0.0
9,METRO,2,Las Rosas-Cuatro Caminos,9,b'retiro',acc_4_32_106,32.0,Calle de Alcalá 60,40.42005,-3.68612,,http://www.crtm.es,2.0,est_4_32,,0.0
9,METRO,2,Las Rosas-Cuatro Caminos,9,b'retiro',est_4_32,32.0,Calle de Alcalá 81,40.42031,-3.68624,A,http://www.crtm.es,1.0,,Europe/Madrid,0.0
10,METRO,2,Las Rosas-Cuatro Caminos,10,b'banco de espana',par_4_33,33.0,Calle de Alcalá 49,40.41922,-3.6949699999999996,A,http://www.crtm.es,0.0,,Europe/Madrid,0.0
10,METRO,2,Las Rosas-Cuatro Caminos,10,b'banco de espana',acc_4_33_109,33.0,Calle de Alcalá 48,40.41895,-3.6945099999999997,,http://www.crtm.es,2.0,est_4_33,,0.0
10,METRO,2,Las Rosas-Cuatro Caminos,10,b'banco de espana',est_4_33,33.0,Calle de Alcalá 49,40.41922,-3.6949699999999996,A,http://www.crtm.es,1.0,,Europe/Madrid,0.0
11,METRO,2,Las Rosas-Cuatro Caminos,11,b'sevilla',par_4_34,34.0,Calle de Alcalá 23,40.41805,-3.69925,A,http://www.crtm.es,0.0,,Europe/Madrid,0.0
12,METRO,2,Las Rosas-Cuatro Caminos,12,b'sol',par_4_12,12.0,Plaza de la Puerta del Sol 6,40.41688,-3.7032599999999998,A,http://www.crtm.es,0.0,est_90_58,,1.0
12,METRO,2,Las Rosas-Cuatro Caminos,12,b'sol',par_4_35,35.0,Plaza de la Puerta del Sol 6,40.41685,-3.7032599999999998,A,http://www.crtm.es,0.0,est_90_58,,1.0
12,METRO,2,Las Rosas-Cuatro Caminos,12,b'sol',par_4_48,48.0,Plaza de la Puerta del Sol 6,40.41682,-3.7032599999999998,A,http://www.crtm.es,0.0,est_90_58,,1.0
13,METRO,2,Las Rosas-Cuatro Caminos,13,b'opera',par_4_36,36.0,Plaza de Isabel II 9,40.41809,-3.7094199999999997,A,http://www.crtm.es,0.0,,Europe/Madrid,0.0
13,METRO,2,Las Rosas-Cuatro Caminos,13,b'opera',est_4_36,36.0,Plaza de Isabel II 9,40.41809,-3.7094199999999997,A,http://www.crtm.es,1.0,,Europe/Madrid,0.0
13,METRO,2,Las Rosas-Cuatro Caminos,13,b'opera',par_4_89,89.0,Plaza de Isabel II 9,40.41809,-3.70935,A,http://www.crtm.es,0.0,est_4_36,,0.0
13,METRO,2,Las Rosas-Cuatro Caminos,13,b'opera',par_4_237,237.0,Plaza de Isabel II 9,40.41809,-3.70928,A,http://www.crtm.es,0.0,est_4_36,,0.0
14,METRO,2,Las Rosas-Cuatro Caminos,14,b'santo domingo',par_4_37,37.0,Calle de San Bernardo 11,40.42132,-3.70796,A,http://www.crtm.es,0.0,,Europe/Madrid,0.0
14,METRO,2,Las Rosas-Cuatro Caminos,14,b'santo domingo',acc_4_37_116,37.0,Plaza de Santo Domingo 6,40.42044,-3.7086,,http://www.crtm.es,2.0,est_4_37,,0.0
14,METRO,2,Las Rosas-Cuatro Caminos,14,b'santo domingo',est_4_37,37.0,Calle de San Bernardo 11,40.42132,-3.70796,A,http://www.crtm.es,1.0,,Europe/Madrid,0.0
15,METRO,2,Las Rosas-Cuatro Caminos,15,b'noviciado',par_4_38,38.0,Calle de San Bernardo 49,40.42484,-3.7074199999999995,A,http://www.crtm.es,0.0,,Europe/Madrid,0.0
15,METRO,2,Las Rosas-Cuatro Caminos,15,b'noviciado',acc_4_38_119,38.0,Calle de San Bernardo 51,40.4255,-3.7074199999999995,,http://www.crtm.es,2.0,est_4_50,,0.0
16,METRO,2,Las Rosas-Cuatro Caminos,16,b'san bernardo',par_4_39,39.0,Calle de San Bernardo 94,40.430009999999996,-3.70557,A,http://www.crtm.es,0.0,,Europe/Madrid,0.0
16,METRO,2,Las Rosas-Cuatro Caminos,16,b'san bernardo',est_4_39,39.0,Calle de San Bernardo 94,40.430009999999996,-3.70557,A,http://www.crtm.es,1.0,,Europe/Madrid,0.0
16,METRO,2,Las Rosas-Cuatro Caminos,16,b'san bernardo',par_4_55,55.0,Gta de Ruiz Jiménez 5,40.42966,-3.7056699999999996,A,http://www.crtm.es,0.0,est_4_39,,0.0
17,METRO,2,Las Rosas-Cuatro Caminos,17,b'quevedo',par_4_40,40.0,Gta de Quevedo 1,40.43322,-3.70433,A,http://www.crtm.es,0.0,,Europe/Madrid,0.0
17,METRO,2,Las Rosas-Cuatro Caminos,17,b'quevedo',est_4_40,40.0,Gta de Quevedo 1,40.43322,-3.70433,A,http://www.crtm.es,1.0,,Europe/Madrid,0.0
18,METRO,2,Las Rosas-Cuatro Caminos,18,b'canal',par_4_41,41.0,Calle de Bravo Murillo 40,40.43841,-3.70433,A,http://www.crtm.es,0.0,,Europe/Madrid,2.0
18,METRO,2,Las Rosas-Cuatro Caminos,18,b'canal',est_4_41,41.0,Calle de Bravo Murillo 40,40.43841,-3.70433,A,http://www.crtm.es,1.0,,Europe/Madrid,2.0
18,METRO,2,Las Rosas-Cuatro Caminos,18,b'canal',par_4_144,144.0,,40.4387,-3.7048900000000002,A,http://www.crtm.es,0.0,est_4_41,,2.0
19,METRO,2,Las Rosas-Cuatro Caminos,19,b'cuatro caminos',par_4_6,6.0,Gta de Cuatro Caminos 2,40.44697,-3.7039699999999995,A,http://www.crtm.es,0.0,,Europe/Madrid,2.0
19,METRO,2,Las Rosas-Cuatro Caminos,19,b'cuatro caminos',est_4_6,6.0,Gta de Cuatro Caminos 2,40.44697,-3.7039699999999995,A,http://www.crtm.es,1.0,,Europe/Madrid,2.0
19,METRO,2,Las Rosas-Cuatro Caminos,19,b'cuatro caminos',par_4_42,42.0,Gta de Cuatro Caminos 10,40.44697,-3.7039199999999997,A,http://www.crtm.es,0.0,est_4_6,,2.0
19,METRO,2,Las Rosas-Cuatro Caminos,19,b'cuatro caminos',par_4_121,121.0,Gta de Cuatro Caminos 9,40.44697,-3.7038699999999998,A,http://www.crtm.es,0.0,est_4_6,,2.0
0,METRO,3,Villaverde Alto-Moncloa,0,b'villaverde alto',par_4_273,273.0,Calle del Valle de Tobalina 56,40.341229999999996,-3.71199,A,http://www.crtm.es,0.0,,Europe/Madrid,2.0
0,METRO,3,Villaverde Alto-Moncloa,0,b'villaverde alto',est_4_273,273.0,Calle del Valle de Tobalina 56,40.341229999999996,-3.71199,A,http://www.crtm.es,1.0,,Europe/Madrid,2.0
1,METRO,3,Villaverde Alto-Moncloa,1,b'san cristobal',par_4_272,272.0,Avda de Andalucía 81,40.34154,-3.6931800000000004,A,http://www.crtm.es,0.0,,Europe/Madrid,2.0
1,METRO,3,Villaverde Alto-Moncloa,1,b'san cristobal',est_4_272,272.0,Avda de Andalucía 81,40.34154,-3.6931800000000004,A,http://www.crtm.es,1.0,,Europe/Madrid,2.0
2,METRO,3,Villaverde Alto-Moncloa,2,b'villaverde bajo - cruce',,,,,,,,,,,
3,METRO,3,Villaverde Alto-Moncloa,3,b'ciudad de los angeles',par_4_270,270.0,Avda de Andalucía 38,40.359590000000004,-3.69363,A,http://www.crtm.es,0.0,,Europe/Madrid,2.0
3,METRO,3,Villaverde Alto-Moncloa,3,b'ciudad de los angeles',est_4_270,270.0,Avda de Andalucía 38,40.359590000000004,-3.69363,A,http://www.crtm.es,1.0,,Europe/Madrid,2.0
4,METRO,3,Villaverde Alto-Moncloa,4,b'san fermin - orcasur',,,,,,,,,,,
5,METRO,3,Villaverde Alto-Moncloa,5,b'hospital 12 de octubre',par_4_268,268.0,Avda de Córdoba 49,40.375029999999995,-3.69585,A,http://www.crtm.es,0.0,,Europe/Madrid,2.0
5,METRO,3,Villaverde Alto-Moncloa,5,b'hospital 12 de octubre',est_4_268,268.0,Avda de Córdoba 49,40.375029999999995,-3.69585,A,http://www.crtm.es,1.0,,Europe/Madrid,2.0
6,METRO,3,Villaverde Alto-Moncloa,6,b'almendrales',par_4_267,267.0,Avda de Córdoba 21,40.38409,-3.6978800000000005,A,http://www.crtm.es,0.0,,Europe/Madrid,2.0
6,METRO,3,Villaverde Alto-Moncloa,6,b'almendrales',est_4_267,267.0,Avda de Córdoba 21,40.38409,-3.6978800000000005,A,http://www.crtm.es,1.0,,Europe/Madrid,2.0
7,METRO,3,Villaverde Alto-Moncloa,7,b'legazpi',par_4_43,43.0,Plaza de Legazpi 2 B,40.39116,-3.6951099999999997,A,http://www.crtm.es,0.0,,Europe/Madrid,2.0
7,METRO,3,Villaverde Alto-Moncloa,7,b'legazpi',est_4_43,43.0,Plaza de Legazpi 2 B,40.39116,-3.6951099999999997,A,http://www.crtm.es,1.0,,Europe/Madrid,2.0
7,METRO,3,Villaverde Alto-Moncloa,7,b'legazpi',par_4_110,110.0,Plaza de Legazpi 2 B,40.39116,-3.69505,A,http://www.crtm.es,0.0,est_4_43,,2.0
8,METRO,3,Villaverde Alto-Moncloa,8,b'delicias',par_4_44,44.0,Paseo de las Delicias 60,40.3999,-3.6942,A,http://www.crtm.es,0.0,,Europe/Madrid,2.0
8,METRO,3,Villaverde Alto-Moncloa,8,b'delicias',est_4_44,44.0,Paseo de las Delicias 60,40.3999,-3.6942,A,http://www.crtm.es,1.0,,Europe/Madrid,2.0
9,METRO,3,Villaverde Alto-Moncloa,9,b'palos de la frontera',par_4_45,45.0,Calle de Palos de la Frontera 33,40.40307,-3.69423,A,http://www.crtm.es,0.0,,Europe/Madrid,2.0
9,METRO,3,Villaverde Alto-Moncloa,9,b'palos de la frontera',est_4_45,45.0,Calle de Palos de la Frontera 33,40.40307,-3.69423,A,http://www.crtm.es,1.0,,Europe/Madrid,2.0
10,METRO,3,Villaverde Alto-Moncloa,10,b'embajadores',par_4_46,46.0,Gta de Embajadores 10,40.40513,-3.7026800000000004,A,http://www.crtm.es,0.0,,Europe/Madrid,2.0
10,METRO,3,Villaverde Alto-Moncloa,10,b'embajadores',acc_4_46_136,46.0,Gta de Embajadores 5,40.40459,-3.7025099999999997,,http://www.crtm.es,2.0,est_4_46,,0.0
10,METRO,3,Villaverde Alto-Moncloa,10,b'embajadores',est_4_46,46.0,Gta de Embajadores 10,40.40513,-3.7026800000000004,A,http://www.crtm.es,1.0,,Europe/Madrid,2.0
11,METRO,3,Villaverde Alto-Moncloa,11,b'lavapies',par_4_47,47.0,Plaza de Lavapiés 7,40.40851,-3.7009,A,http://www.crtm.es,0.0,,Europe/Madrid,2.0
11,METRO,3,Villaverde Alto-Moncloa,11,b'lavapies',est_4_47,47.0,Plaza de Lavapiés 7,40.40851,-3.7009,A,http://www.crtm.es,1.0,,Europe/Madrid,2.0
12,METRO,3,Villaverde Alto-Moncloa,12,b'sol',par_4_12,12.0,Plaza de la Puerta del Sol 6,40.41688,-3.7032599999999998,A,http://www.crtm.es,0.0,est_90_58,,1.0
12,METRO,3,Villaverde Alto-Moncloa,12,b'sol',par_4_35,35.0,Plaza de la Puerta del Sol 6,40.41685,-3.7032599999999998,A,http://www.crtm.es,0.0,est_90_58,,1.0
12,METRO,3,Villaverde Alto-Moncloa,12,b'sol',par_4_48,48.0,Plaza de la Puerta del Sol 6,40.41682,-3.7032599999999998,A,http://www.crtm.es,0.0,est_90_58,,1.0
13,METRO,3,Villaverde Alto-Moncloa,13,b'callao',par_4_49,49.0,Plaza del Callao 3,40.42014,-3.70566,A,http://www.crtm.es,0.0,,Europe/Madrid,2.0
13,METRO,3,Villaverde Alto-Moncloa,13,b'callao',est_4_49,49.0,Plaza del Callao 3,40.42014,-3.70566,A,http://www.crtm.es,1.0,,Europe/Madrid,2.0
13,METRO,3,Villaverde Alto-Moncloa,13,b'callao',par_4_88,88.0,Plaza del Callao 3,40.42008,-3.70566,A,http://www.crtm.es,0.0,est_4_49,,2.0
14,METRO,3,Villaverde Alto-Moncloa,14,b'plaza de espana',par_4_50,50.0,Plaza de España 1,40.42342,-3.7112,A,http://www.crtm.es,0.0,,Europe/Madrid,2.0
14,METRO,3,Villaverde Alto-Moncloa,14,b'plaza de espana',acc_4_50_145,50.0,Plaza de España 18,40.42415,-3.71196,,http://www.crtm.es,2.0,est_4_50,,0.0
14,METRO,3,Villaverde Alto-Moncloa,14,b'plaza de espana',est_4_50,50.0,Plaza de España 1,40.42342,-3.7112,A,http://www.crtm.es,1.0,,Europe/Madrid,2.0
14,METRO,3,Villaverde Alto-Moncloa,14,b'plaza de espana',par_4_197,197.0,Calle de los Reyes 10,40.42409,-3.7097,A,http://www.crtm.es,0.0,est_4_50,,2.0
15,METRO,3,Villaverde Alto-Moncloa,15,b'ventura rodriguez',par_4_51,51.0,Calle de la Princesa 22,40.42709,-3.7134099999999997,A,http://www.crtm.es,0.0,,Europe/Madrid,2.0
15,METRO,3,Villaverde Alto-Moncloa,15,b'ventura rodriguez',est_4_51,51.0,Calle de la Princesa 22,40.42709,-3.7134099999999997,A,http://www.crtm.es,1.0,,Europe/Madrid,2.0
16,METRO,3,Villaverde Alto-Moncloa,16,b'arguelles',par_4_52,52.0,Calle de Alberto Aguilera 72,40.430659999999996,-3.71596,A,http://www.crtm.es,0.0,,Europe/Madrid,0.0
16,METRO,3,Villaverde Alto-Moncloa,16,b'arguelles',est_4_52,52.0,Calle de Alberto Aguilera 72,40.430659999999996,-3.71596,A,http://www.crtm.es,1.0,,Europe/Madrid,0.0
16,METRO,3,Villaverde Alto-Moncloa,16,b'arguelles',par_4_54,54.0,Calle de Alberto Aguilera 72,40.4306,-3.71596,A,http://www.crtm.es,0.0,est_4_52,,0.0
16,METRO,3,Villaverde Alto-Moncloa,16,b'arguelles',par_4_126,126.0,Calle de Alberto Aguilera 72,40.43053,-3.71596,A,http://www.crtm.es,0.0,est_4_52,,2.0
17,METRO,3,Villaverde Alto-Moncloa,17,b'moncloa',par_4_53,53.0,Plaza de la Moncloa 1,40.43502,-3.71945,A,http://www.crtm.es,0.0,est_90_14,,2.0
17,METRO,3,Villaverde Alto-Moncloa,17,b'moncloa',par_4_125,125.0,Paseo de Moret 1,40.43497,-3.71945,A,http://www.crtm.es,0.0,est_90_14,,2.0
0,METRO,4,Argüelles-Pinar de Chamartín,0,b'arguelles',par_4_52,52.0,Calle de Alberto Aguilera 72,40.430659999999996,-3.71596,A,http://www.crtm.es,0.0,,Europe/Madrid,0.0
0,METRO,4,Argüelles-Pinar de Chamartín,0,b'arguelles',est_4_52,52.0,Calle de Alberto Aguilera 72,40.430659999999996,-3.71596,A,http://www.crtm.es,1.0,,Europe/Madrid,0.0
0,METRO,4,Argüelles-Pinar de Chamartín,0,b'arguelles',par_4_54,54.0,Calle de Alberto Aguilera 72,40.4306,-3.71596,A,http://www.crtm.es,0.0,est_4_52,,0.0
0,METRO,4,Argüelles-Pinar de Chamartín,0,b'arguelles',par_4_126,126.0,Calle de Alberto Aguilera 72,40.43053,-3.71596,A,http://www.crtm.es,0.0,est_4_52,,2.0
1,METRO,4,Argüelles-Pinar de Chamartín,1,b'san bernardo',par_4_39,39.0,Calle de San Bernardo 94,40.430009999999996,-3.70557,A,http://www.crtm.es,0.0,,Europe/Madrid,0.0
1,METRO,4,Argüelles-Pinar de Chamartín,1,b'san bernardo',est_4_39,39.0,Calle de San Bernardo 94,40.430009999999996,-3.70557,A,http://www.crtm.es,1.0,,Europe/Madrid,0.0
1,METRO,4,Argüelles-Pinar de Chamartín,1,b'san bernardo',par_4_55,55.0,Gta de Ruiz Jiménez 5,40.42966,-3.7056699999999996,A,http://www.crtm.es,0.0,est_4_39,,0.0
2,METRO,4,Argüelles-Pinar de Chamartín,2,b'bilbao',par_4_9,9.0,Calle de Sagasta 2,40.42906,-3.7021800000000002,A,http://www.crtm.es,0.0,,Europe/Madrid,0.0
2,METRO,4,Argüelles-Pinar de Chamartín,2,b'bilbao',est_4_9,9.0,Calle de Sagasta 2,40.42906,-3.7021800000000002,A,http://www.crtm.es,1.0,,Europe/Madrid,0.0
2,METRO,4,Argüelles-Pinar de Chamartín,2,b'bilbao',par_4_56,56.0,Calle de Sagasta 5,40.42885,-3.70114,A,http://www.crtm.es,0.0,est_4_9,,0.0
3,METRO,4,Argüelles-Pinar de Chamartín,3,b'alonso martinez',par_4_57,57.0,Plaza de Alonso Martínez 4,40.42772,-3.6959400000000002,A,http://www.crtm.es,0.0,,Europe/Madrid,0.0
3,METRO,4,Argüelles-Pinar de Chamartín,3,b'alonso martinez',est_4_57,57.0,Plaza de Alonso Martínez 4,40.42772,-3.6959400000000002,A,http://www.crtm.es,1.0,,Europe/Madrid,0.0
3,METRO,4,Argüelles-Pinar de Chamartín,3,b'alonso martinez',par_4_85,85.0,Calle de Almagro 4,40.42828,-3.6950199999999995,A,http://www.crtm.es,0.0,est_4_57,,0.0
3,METRO,4,Argüelles-Pinar de Chamartín,3,b'alonso martinez',par_4_195,195.0,Calle de Manuel González Longoria 14,40.42853,-3.6964300000000003,A,http://www.crtm.es,0.0,est_4_57,,0.0
4,METRO,4,Argüelles-Pinar de Chamartín,4,b'colon',par_4_58,58.0,Plaza de Colón 2,40.42542,-3.69101,A,http://www.crtm.es,0.0,,Europe/Madrid,0.0
4,METRO,4,Argüelles-Pinar de Chamartín,4,b'colon',est_4_58,58.0,Plaza de Colón 2,40.42542,-3.69101,A,http://www.crtm.es,1.0,,Europe/Madrid,0.0
5,METRO,4,Argüelles-Pinar de Chamartín,5,b'serrano',par_4_59,59.0,Calle de Goya 19,40.42543,-3.68663,A,http://www.crtm.es,0.0,,Europe/Madrid,0.0
5,METRO,4,Argüelles-Pinar de Chamartín,5,b'serrano',acc_4_59_167,59.0,Calle de Goya 15,40.42548,-3.68761,,http://www.crtm.es,2.0,est_4_59,,0.0
5,METRO,4,Argüelles-Pinar de Chamartín,5,b'serrano',est_4_59,59.0,Calle de Goya 19,40.42543,-3.68663,A,http://www.crtm.es,1.0,,Europe/Madrid,0.0
6,METRO,4,Argüelles-Pinar de Chamartín,6,b'velazquez',par_4_60,60.0,Calle de Núñez de Balboa 33,40.42503,-3.6829199999999997,A,http://www.crtm.es,0.0,,Europe/Madrid,0.0
6,METRO,4,Argüelles-Pinar de Chamartín,6,b'velazquez',est_4_60,60.0,Calle de Núñez de Balboa 33,40.42503,-3.6829199999999997,A,http://www.crtm.es,1.0,,Europe/Madrid,0.0
6,METRO,4,Argüelles-Pinar de Chamartín,6,b'velazquez',acc_4_83_239,83.0,Calle de Velazquez 92,40.432809999999996,-3.6831300000000002,,http://www.crtm.es,2.0,est_4_83,,0.0
7,METRO,4,Argüelles-Pinar de Chamartín,7,b'goya',par_4_30,30.0,Calle de Alcalá 96,40.42455,-3.67591,A,http://www.crtm.es,0.0,,Europe/Madrid,2.0
7,METRO,4,Argüelles-Pinar de Chamartín,7,b'goya',est_4_30,30.0,Calle de Alcalá 96,40.42455,-3.67591,A,http://www.crtm.es,1.0,,Europe/Madrid,2.0
7,METRO,4,Argüelles-Pinar de Chamartín,7,b'goya',par_4_61,61.0,Calle de Goya 68,40.42481,-3.67685,A,http://www.crtm.es,0.0,est_4_30,,2.0
7,METRO,4,Argüelles-Pinar de Chamartín,7,b'goya',acc_4_214_586,214.0,Calle  Parque Vosa 35,40.32897,-3.86385,,http://www.crtm.es,2.0,est_4_214,,0.0
8,METRO,4,Argüelles-Pinar de Chamartín,8,b'lista',par_4_62,62.0,Calle del Conde de Peñalver 45,40.42917,-3.67541,A,http://www.crtm.es,0.0,,Europe/Madrid,0.0
8,METRO,4,Argüelles-Pinar de Chamartín,8,b'lista',est_4_62,62.0,Calle del Conde de Peñalver 45,40.42917,-3.67541,A,http://www.crtm.es,1.0,,Europe/Madrid,0.0
9,METRO,4,Argüelles-Pinar de Chamartín,9,b'diego de leon',par_4_63,63.0,Calle de Diego de León 69,40.43468,-3.67495,A,http://www.crtm.es,0.0,,Europe/Madrid,0.0
9,METRO,4,Argüelles-Pinar de Chamartín,9,b'diego de leon',acc_4_63_177,63.0,Calle de Diego de León 69,40.43463,-3.67509,,http://www.crtm.es,2.0,est_4_63,,0.0
9,METRO,4,Argüelles-Pinar de Chamartín,9,b'diego de leon',est_4_63,63.0,Calle de Diego de León 69,40.43468,-3.67495,A,http://www.crtm.es,1.0,,Europe/Madrid,0.0
9,METRO,4,Argüelles-Pinar de Chamartín,9,b'diego de leon',par_4_82,82.0,Calle de Juan Bravo 58,40.43235,-3.67426,A,http://www.crtm.es,0.0,est_4_63,,0.0
9,METRO,4,Argüelles-Pinar de Chamartín,9,b'diego de leon',par_4_117,117.0,Calle de Francisco Silvela 47,40.43295,-3.67294,A,http://www.crtm.es,0.0,est_4_63,,0.0
10,METRO,4,Argüelles-Pinar de Chamartín,10,b'avenida de america',par_4_64,64.0,Avda de América 9 A,40.43803,-3.6766400000000004,A,http://www.crtm.es,0.0,est_90_4,,0.0
10,METRO,4,Argüelles-Pinar de Chamartín,10,b'avenida de america',par_4_118,118.0,Avda de América 9 A,40.43804,-3.6765800000000004,A,http://www.crtm.es,0.0,est_90_4,,0.0
10,METRO,4,Argüelles-Pinar de Chamartín,10,b'avenida de america',par_4_141,141.0,,40.43804,-3.67653,A,http://www.crtm.es,0.0,est_90_4,,0.0
10,METRO,4,Argüelles-Pinar de Chamartín,10,b'avenida de america',par_4_170,170.0,Avda de América 9 A,40.43804,-3.6764699999999997,A,http://www.crtm.es,0.0,est_90_4,,0.0
11,METRO,4,Argüelles-Pinar de Chamartín,11,b'prosperidad',par_4_65,65.0,Plaza de la Prosperidad 4,40.44419,-3.6748199999999995,A,http://www.crtm.es,0.0,,Europe/Madrid,0.0
11,METRO,4,Argüelles-Pinar de Chamartín,11,b'prosperidad',est_4_65,65.0,Plaza de la Prosperidad 4,40.44419,-3.6748199999999995,A,http://www.crtm.es,1.0,,Europe/Madrid,0.0
12,METRO,4,Argüelles-Pinar de Chamartín,12,b'alfonso xiii',par_4_66,66.0,Calle de López de Hoyos 190,40.44825,-3.66791,A,http://www.crtm.es,0.0,,Europe/Madrid,0.0
12,METRO,4,Argüelles-Pinar de Chamartín,12,b'alfonso xiii',est_4_66,66.0,Calle de López de Hoyos 190,40.44825,-3.66791,A,http://www.crtm.es,1.0,,Europe/Madrid,0.0
13,METRO,4,Argüelles-Pinar de Chamartín,13,b'avenida de la paz',par_4_67,67.0,Avda de Ramón y Cajal 107,40.453540000000004,-3.6611800000000003,A,http://www.crtm.es,0.0,,Europe/Madrid,0.0
13,METRO,4,Argüelles-Pinar de Chamartín,13,b'avenida de la paz',acc_4_67_189,67.0,Avda de Ramón y Cajal 78,40.45264,-3.6637199999999996,,http://www.crtm.es,2.0,est_4_67,,0.0
13,METRO,4,Argüelles-Pinar de Chamartín,13,b'avenida de la paz',est_4_67,67.0,Avda de Ramón y Cajal 107,40.453540000000004,-3.6611800000000003,A,http://www.crtm.es,1.0,,Europe/Madrid,0.0
14,METRO,4,Argüelles-Pinar de Chamartín,14,b'arturo soria',acc_4_263_645,263.0,Calle de Arturo Soria 330,40.4802,-3.6668199999999995,,http://www.crtm.es,2.0,est_4_263,,0.0
14,METRO,4,Argüelles-Pinar de Chamartín,14,b'arturo soria',par_4_68,68.0,Calle de Arturo Soria 172,40.45583,-3.6561800000000004,A,http://www.crtm.es,0.0,,Europe/Madrid,0.0
14,METRO,4,Argüelles-Pinar de Chamartín,14,b'arturo soria',acc_4_68_192,68.0,Calle de Arturo Soria 172,40.45565,-3.6560300000000003,,http://www.crtm.es,2.0,est_4_68,,0.0
14,METRO,4,Argüelles-Pinar de Chamartín,14,b'arturo soria',est_4_68,68.0,Calle de Arturo Soria 172,40.45583,-3.6561800000000004,A,http://www.crtm.es,1.0,,Europe/Madrid,0.0
14,METRO,4,Argüelles-Pinar de Chamartín,14,b'arturo soria',acc_4_77_219,77.0,Calle de Arturo Soria 2,40.438190000000006,-3.6380199999999996,,http://www.crtm.es,2.0,est_4_77,,0.0
15,METRO,4,Argüelles-Pinar de Chamartín,15,b'esperanza',par_4_69,69.0,Calle de Andorra 51,40.45945,-3.6458199999999996,A,http://www.crtm.es,0.0,,Europe/Madrid,0.0
15,METRO,4,Argüelles-Pinar de Chamartín,15,b'esperanza',est_4_69,69.0,Calle de Andorra 51,40.45945,-3.6458199999999996,A,http://www.crtm.es,1.0,,Europe/Madrid,0.0
16,METRO,4,Argüelles-Pinar de Chamartín,16,b'canillas',par_4_70,70.0,Avda de Machupichu 64,40.463809999999995,-3.6356,A,http://www.crtm.es,0.0,,Europe/Madrid,2.0
16,METRO,4,Argüelles-Pinar de Chamartín,16,b'canillas',est_4_70,70.0,Avda de Machupichu 64,40.463809999999995,-3.6356,A,http://www.crtm.es,1.0,,Europe/Madrid,2.0
17,METRO,4,Argüelles-Pinar de Chamartín,17,b'mar de cristal',par_4_71,71.0,Gta del Mar de Cristal 1 B,40.469429999999996,-3.6383199999999998,A,http://www.crtm.es,0.0,,Europe/Madrid,2.0
17,METRO,4,Argüelles-Pinar de Chamartín,17,b'mar de cristal',est_4_71,71.0,Gta del Mar de Cristal 1 B,40.469429999999996,-3.6383199999999998,A,http://www.crtm.es,1.0,,Europe/Madrid,2.0
17,METRO,4,Argüelles-Pinar de Chamartín,17,b'mar de cristal',par_4_157,157.0,Gta de Mar de Cristal 1,40.46938,-3.6383199999999998,A,http://www.crtm.es,0.0,est_4_71,,2.0
18,METRO,4,Argüelles-Pinar de Chamartín,18,b'san lorenzo',par_4_72,72.0,Avda de la Barranquilla 9,40.474470000000004,-3.6395800000000005,A,http://www.crtm.es,0.0,,Europe/Madrid,2.0
18,METRO,4,Argüelles-Pinar de Chamartín,18,b'san lorenzo',est_4_72,72.0,Avda de la Barranquilla 9,40.474470000000004,-3.6395800000000005,A,http://www.crtm.es,1.0,,Europe/Madrid,2.0
19,METRO,4,Argüelles-Pinar de Chamartín,19,b'parque de santa maria',par_4_73,73.0,Calle de Santa Virgilia 1,40.477109999999996,-3.6452400000000003,A,http://www.crtm.es,0.0,,Europe/Madrid,2.0
19,METRO,4,Argüelles-Pinar de Chamartín,19,b'parque de santa maria',est_4_73,73.0,Calle de Santa Virgilia 1,40.477109999999996,-3.6452400000000003,A,http://www.crtm.es,1.0,,Europe/Madrid,2.0
20,METRO,4,Argüelles-Pinar de Chamartín,20,b'hortaleza',par_4_264,264.0,Calle del Capitán Cortés 4,40.47537,-3.65257,A,http://www.crtm.es,0.0,,Europe/Madrid,2.0
20,METRO,4,Argüelles-Pinar de Chamartín,20,b'hortaleza',est_4_264,264.0,Calle del Capitán Cortés 4,40.47537,-3.65257,A,http://www.crtm.es,1.0,,Europe/Madrid,2.0
21,METRO,4,Argüelles-Pinar de Chamartín,21,b'manoteras',par_4_265,265.0,Calle de Bacares 24,40.47687,-3.6629,A,http://www.crtm.es,0.0,,Europe/Madrid,2.0
21,METRO,4,Argüelles-Pinar de Chamartín,21,b'manoteras',est_4_265,265.0,Calle de Bacares 24,40.47687,-3.6629,A,http://www.crtm.es,1.0,,Europe/Madrid,2.0
22,METRO,4,Argüelles-Pinar de Chamartín,22,b'pinar de chamartin',par_4_263,263.0,Calle de Arturo Soria 330,40.480140000000006,-3.6668,A,http://www.crtm.es,0.0,,Europe/Madrid,2.0
22,METRO,4,Argüelles-Pinar de Chamartín,22,b'pinar de chamartin',est_4_263,263.0,Calle de Arturo Soria 330,40.480140000000006,-3.6668,A,http://www.crtm.es,1.0,,Europe/Madrid,2.0
22,METRO,4,Argüelles-Pinar de Chamartín,22,b'pinar de chamartin',par_4_266,266.0,Calle de Arturo Soria 330,40.480140000000006,-3.66676,A,http://www.crtm.es,0.0,est_4_263,,2.0
0,METRO,5,Alameda de Osuna-Casa de Campo,0,b'alameda de osuna',par_4_252,252.0,Calle de la Corbeta 14,40.45779,-3.5875199999999996,A,http://www.crtm.es,0.0,,Europe/Madrid,2.0
0,METRO,5,Alameda de Osuna-Casa de Campo,0,b'alameda de osuna',est_4_252,252.0,Calle de la Corbeta 14,40.45779,-3.5875199999999996,A,http://www.crtm.es,1.0,,Europe/Madrid,2.0
1,METRO,5,Alameda de Osuna-Casa de Campo,1,b'el capricho',par_4_253,253.0,Calle de Pinos de Osuna 15,40.45347,-3.59401,A,http://www.crtm.es,0.0,,Europe/Madrid,2.0
1,METRO,5,Alameda de Osuna-Casa de Campo,1,b'el capricho',est_4_253,253.0,Calle de Pinos de Osuna 15,40.45347,-3.59401,A,http://www.crtm.es,1.0,,Europe/Madrid,2.0
2,METRO,5,Alameda de Osuna-Casa de Campo,2,b'canillejas',par_4_74,74.0,Calle de Alcalá 631,40.44942,-3.60816,A,http://www.crtm.es,0.0,,Europe/Madrid,0.0
2,METRO,5,Alameda de Osuna-Casa de Campo,2,b'canillejas',est_4_74,74.0,Calle de Alcalá 631,40.44942,-3.60816,A,http://www.crtm.es,1.0,,Europe/Madrid,0.0
3,METRO,5,Alameda de Osuna-Casa de Campo,3,b'torre arias',par_4_75,75.0,Calle de Alcalá 557,40.443740000000005,-3.61699,A,http://www.crtm.es,0.0,,Europe/Madrid,0.0
3,METRO,5,Alameda de Osuna-Casa de Campo,3,b'torre arias',est_4_75,75.0,Calle de Alcalá 557,40.443740000000005,-3.61699,A,http://www.crtm.es,1.0,,Europe/Madrid,0.0
4,METRO,5,Alameda de Osuna-Casa de Campo,4,b'suanzes',par_4_76,76.0,Calle de Alcalá 527,40.44085,-3.62684,A,http://www.crtm.es,0.0,,Europe/Madrid,0.0
4,METRO,5,Alameda de Osuna-Casa de Campo,4,b'suanzes',est_4_76,76.0,Calle de Alcalá 527,40.44085,-3.62684,A,http://www.crtm.es,1.0,,Europe/Madrid,0.0
5,METRO,5,Alameda de Osuna-Casa de Campo,5,b'ciudad lineal',par_4_77,77.0,Calle de Arturo Soria 2,40.43805,-3.63816,A,http://www.crtm.es,0.0,,Europe/Madrid,0.0
5,METRO,5,Alameda de Osuna-Casa de Campo,5,b'ciudad lineal',est_4_77,77.0,Calle de Arturo Soria 2,40.43805,-3.63816,A,http://www.crtm.es,1.0,,Europe/Madrid,0.0
6,METRO,5,Alameda de Osuna-Casa de Campo,6,b'pueblo nuevo',par_4_78,78.0,Calle de Alcalá 372,40.43569,-3.6428199999999995,A,http://www.crtm.es,0.0,,Europe/Madrid,0.0
6,METRO,5,Alameda de Osuna-Casa de Campo,6,b'pueblo nuevo',est_4_78,78.0,Calle de Alcalá 372,40.43569,-3.6428199999999995,A,http://www.crtm.es,1.0,,Europe/Madrid,0.0
6,METRO,5,Alameda de Osuna-Casa de Campo,6,b'pueblo nuevo',par_4_137,137.0,,40.43566,-3.6428199999999995,A,http://www.crtm.es,0.0,est_4_78,,0.0
7,METRO,5,Alameda de Osuna-Casa de Campo,7,b'quintana',par_4_79,79.0,Calle de la Virgen del Sagrario 2,40.43358,-3.64736,A,http://www.crtm.es,0.0,,Europe/Madrid,0.0
7,METRO,5,Alameda de Osuna-Casa de Campo,7,b'quintana',est_4_79,79.0,Calle de la Virgen del Sagrario 2,40.43358,-3.64736,A,http://www.crtm.es,1.0,,Europe/Madrid,0.0
8,METRO,5,Alameda de Osuna-Casa de Campo,8,b'el carmen',par_4_80,80.0,Calle de Raquel Méller 2,40.43189,-3.6575699999999998,A,http://www.crtm.es,0.0,,Europe/Madrid,0.0
8,METRO,5,Alameda de Osuna-Casa de Campo,8,b'el carmen',est_4_80,80.0,Calle de Raquel Méller 2,40.43189,-3.6575699999999998,A,http://www.crtm.es,1.0,,Europe/Madrid,0.0
9,METRO,5,Alameda de Osuna-Casa de Campo,9,b'ventas',par_4_28,28.0,Calle de Alcalá 204,40.43088,-3.6636599999999997,A,http://www.crtm.es,0.0,,Europe/Madrid,0.0
9,METRO,5,Alameda de Osuna-Casa de Campo,9,b'ventas',est_4_28,28.0,Calle de Alcalá 204,40.43088,-3.6636599999999997,A,http://www.crtm.es,1.0,,Europe/Madrid,0.0
9,METRO,5,Alameda de Osuna-Casa de Campo,9,b'ventas',par_4_81,81.0,Calle de Alcalá 204,40.43088,-3.66361,A,http://www.crtm.es,0.0,est_4_28,,0.0
10,METRO,5,Alameda de Osuna-Casa de Campo,10,b'diego de leon',par_4_63,63.0,Calle de Diego de León 69,40.43468,-3.67495,A,http://www.crtm.es,0.0,,Europe/Madrid,0.0
10,METRO,5,Alameda de Osuna-Casa de Campo,10,b'diego de leon',acc_4_63_177,63.0,Calle de Diego de León 69,40.43463,-3.67509,,http://www.crtm.es,2.0,est_4_63,,0.0
10,METRO,5,Alameda de Osuna-Casa de Campo,10,b'diego de leon',est_4_63,63.0,Calle de Diego de León 69,40.43468,-3.67495,A,http://www.crtm.es,1.0,,Europe/Madrid,0.0
10,METRO,5,Alameda de Osuna-Casa de Campo,10,b'diego de leon',par_4_82,82.0,Calle de Juan Bravo 58,40.43235,-3.67426,A,http://www.crtm.es,0.0,est_4_63,,0.0
10,METRO,5,Alameda de Osuna-Casa de Campo,10,b'diego de leon',par_4_117,117.0,Calle de Francisco Silvela 47,40.43295,-3.67294,A,http://www.crtm.es,0.0,est_4_63,,0.0
11,METRO,5,Alameda de Osuna-Casa de Campo,11,b'nunez de balboa',par_4_83,83.0,Calle de Juan Bravo 20,40.43278,-3.68258,A,http://www.crtm.es,0.0,,Europe/Madrid,0.0
11,METRO,5,Alameda de Osuna-Casa de Campo,11,b'nunez de balboa',acc_4_83_240,83.0,Calle de Nuñez de Balboa 85,40.43277,-3.6823,,http://www.crtm.es,2.0,est_4_83,,0.0
11,METRO,5,Alameda de Osuna-Casa de Campo,11,b'nunez de balboa',est_4_83,83.0,Calle de Juan Bravo 20,40.43278,-3.68258,A,http://www.crtm.es,1.0,,Europe/Madrid,0.0
11,METRO,5,Alameda de Osuna-Casa de Campo,11,b'nunez de balboa',par_4_171,171.0,Plaza del Marqués de Salamanca 9,40.43013,-3.67936,A,http://www.crtm.es,0.0,est_4_83,,0.0
12,METRO,5,Alameda de Osuna-Casa de Campo,12,b'ruben dario',par_4_84,84.0,Paseo de Eduardo Dato 33,40.43316,-3.68954,A,http://www.crtm.es,0.0,,Europe/Madrid,0.0
12,METRO,5,Alameda de Osuna-Casa de Campo,12,b'ruben dario',est_4_84,84.0,Paseo de Eduardo Dato 33,40.43316,-3.68954,A,http://www.crtm.es,1.0,,Europe/Madrid,0.0
13,METRO,5,Alameda de Osuna-Casa de Campo,13,b'alonso martinez',par_4_57,57.0,Plaza de Alonso Martínez 4,40.42772,-3.6959400000000002,A,http://www.crtm.es,0.0,,Europe/Madrid,0.0
13,METRO,5,Alameda de Osuna-Casa de Campo,13,b'alonso martinez',est_4_57,57.0,Plaza de Alonso Martínez 4,40.42772,-3.6959400000000002,A,http://www.crtm.es,1.0,,Europe/Madrid,0.0
13,METRO,5,Alameda de Osuna-Casa de Campo,13,b'alonso martinez',par_4_85,85.0,Calle de Almagro 4,40.42828,-3.6950199999999995,A,http://www.crtm.es,0.0,est_4_57,,0.0
13,METRO,5,Alameda de Osuna-Casa de Campo,13,b'alonso martinez',par_4_195,195.0,Calle de Manuel González Longoria 14,40.42853,-3.6964300000000003,A,http://www.crtm.es,0.0,est_4_57,,0.0
14,METRO,5,Alameda de Osuna-Casa de Campo,14,b'chueca',par_4_86,86.0,Plaza de Chueca 7,40.42293,-3.6976199999999997,A,http://www.crtm.es,0.0,,Europe/Madrid,0.0
14,METRO,5,Alameda de Osuna-Casa de Campo,14,b'chueca',est_4_86,86.0,Plaza de Chueca 7,40.42293,-3.6976199999999997,A,http://www.crtm.es,1.0,,Europe/Madrid,0.0
15,METRO,5,Alameda de Osuna-Casa de Campo,15,b'gran via',par_4_11,11.0,Calle   Gran Vía 23,40.42001,-3.7018,A,http://www.crtm.es,0.0,,Europe/Madrid,0.0
15,METRO,5,Alameda de Osuna-Casa de Campo,15,b'gran via',acc_4_11_37,11.0,Calle  Gran Vía 21,40.419909999999994,-3.7013,,http://www.crtm.es,2.0,est_4_11,,0.0
15,METRO,5,Alameda de Osuna-Casa de Campo,15,b'gran via',acc_4_11_38,11.0,Calle  Gran Vía 23,40.41992,-3.70183,,http://www.crtm.es,2.0,est_4_11,,0.0
15,METRO,5,Alameda de Osuna-Casa de Campo,15,b'gran via',est_4_11,11.0,Calle   Gran Vía 23,40.42001,-3.7018,A,http://www.crtm.es,1.0,,Europe/Madrid,0.0
15,METRO,5,Alameda de Osuna-Casa de Campo,15,b'gran via',acc_4_37_117,37.0,Calle  Gran Vía 51,40.4213,-3.70778,,http://www.crtm.es,2.0,est_4_37,,0.0
15,METRO,5,Alameda de Osuna-Casa de Campo,15,b'gran via',par_4_87,87.0,Calle   Gran Vía 23,40.419990000000006,-3.7018,A,http://www.crtm.es,0.0,est_4_11,,0.0
16,METRO,5,Alameda de Osuna-Casa de Campo,16,b'callao',par_4_49,49.0,Plaza del Callao 3,40.42014,-3.70566,A,http://www.crtm.es,0.0,,Europe/Madrid,2.0
16,METRO,5,Alameda de Osuna-Casa de Campo,16,b'callao',est_4_49,49.0,Plaza del Callao 3,40.42014,-3.70566,A,http://www.crtm.es,1.0,,Europe/Madrid,2.0
16,METRO,5,Alameda de Osuna-Casa de Campo,16,b'callao',par_4_88,88.0,Plaza del Callao 3,40.42008,-3.70566,A,http://www.crtm.es,0.0,est_4_49,,2.0
17,METRO,5,Alameda de Osuna-Casa de Campo,17,b'opera',par_4_36,36.0,Plaza de Isabel II 9,40.41809,-3.7094199999999997,A,http://www.crtm.es,0.0,,Europe/Madrid,0.0
17,METRO,5,Alameda de Osuna-Casa de Campo,17,b'opera',est_4_36,36.0,Plaza de Isabel II 9,40.41809,-3.7094199999999997,A,http://www.crtm.es,1.0,,Europe/Madrid,0.0
17,METRO,5,Alameda de Osuna-Casa de Campo,17,b'opera',par_4_89,89.0,Plaza de Isabel II 9,40.41809,-3.70935,A,http://www.crtm.es,0.0,est_4_36,,0.0
17,METRO,5,Alameda de Osuna-Casa de Campo,17,b'opera',par_4_237,237.0,Plaza de Isabel II 9,40.41809,-3.70928,A,http://www.crtm.es,0.0,est_4_36,,0.0
18,METRO,5,Alameda de Osuna-Casa de Campo,18,b'la latina',par_4_90,90.0,Calle de San Millán 5,40.41128,-3.70816,A,http://www.crtm.es,0.0,,Europe/Madrid,0.0
18,METRO,5,Alameda de Osuna-Casa de Campo,18,b'la latina',est_4_90,90.0,Calle de San Millán 5,40.41128,-3.70816,A,http://www.crtm.es,1.0,,Europe/Madrid,0.0
19,METRO,5,Alameda de Osuna-Casa de Campo,19,b'puerta de toledo',par_4_91,91.0,Gta de Puerta de Toledo 1,40.40704,-3.71105,A,http://www.crtm.es,0.0,,Europe/Madrid,0.0
19,METRO,5,Alameda de Osuna-Casa de Campo,19,b'puerta de toledo',acc_4_91_250,91.0,Gta de Puerta de Toledo 1,40.40681,-3.71087,,http://www.crtm.es,2.0,est_4_91,,0.0
19,METRO,5,Alameda de Osuna-Casa de Campo,19,b'puerta de toledo',est_4_91,91.0,Gta de Puerta de Toledo 1,40.40704,-3.71105,A,http://www.crtm.es,1.0,,Europe/Madrid,0.0
20,METRO,5,Alameda de Osuna-Casa de Campo,20,b'acacias',par_4_92,92.0,Paseo de las Acacias 20,40.40387,-3.70664,A,http://www.crtm.es,0.0,,Europe/Madrid,0.0
21,METRO,5,Alameda de Osuna-Casa de Campo,21,b'piramides',par_4_93,93.0,Paseo del Doctor Vallejo Nágera 37,40.4026,-3.71138,A,http://www.crtm.es,0.0,,Europe/Madrid,2.0
21,METRO,5,Alameda de Osuna-Casa de Campo,21,b'piramides',est_4_93,93.0,Paseo del Doctor Vallejo Nágera 37,40.4026,-3.71138,A,http://www.crtm.es,1.0,,Europe/Madrid,2.0
22,METRO,5,Alameda de Osuna-Casa de Campo,22,b'marques de vadillo',par_4_94,94.0,Gta del Marqués de Vadillo 4,40.39736,-3.71596,A,http://www.crtm.es,0.0,,Europe/Madrid,0.0
22,METRO,5,Alameda de Osuna-Casa de Campo,22,b'marques de vadillo',est_4_94,94.0,Gta del Marqués de Vadillo 4,40.39736,-3.71596,A,http://www.crtm.es,1.0,,Europe/Madrid,0.0
23,METRO,5,Alameda de Osuna-Casa de Campo,23,b'urgel',par_4_95,95.0,Calle del Camino Viejo de Leganés 1,40.39335,-3.7236,A,http://www.crtm.es,0.0,,Europe/Madrid,0.0
23,METRO,5,Alameda de Osuna-Casa de Campo,23,b'urgel',est_4_95,95.0,Calle del Camino Viejo de Leganés 1,40.39335,-3.7236,A,http://www.crtm.es,1.0,,Europe/Madrid,0.0
24,METRO,5,Alameda de Osuna-Casa de Campo,24,b'oporto',par_4_96,96.0,Gta del Valle de Oro 13,40.388459999999995,-3.7313199999999997,A,http://www.crtm.es,0.0,,Europe/Madrid,0.0
24,METRO,5,Alameda de Osuna-Casa de Campo,24,b'oporto',est_4_96,96.0,Gta del Valle de Oro 13,40.388459999999995,-3.7313199999999997,A,http://www.crtm.es,1.0,,Europe/Madrid,0.0
24,METRO,5,Alameda de Osuna-Casa de Campo,24,b'oporto',par_4_106,106.0,Gta del Valle de Oro 2,40.38847,-3.73126,A,http://www.crtm.es,0.0,est_4_96,,0.0
25,METRO,5,Alameda de Osuna-Casa de Campo,25,b'vista alegre',par_4_97,97.0,Calle de la Oca 74,40.38885,-3.73982,A,http://www.crtm.es,0.0,,Europe/Madrid,0.0
25,METRO,5,Alameda de Osuna-Casa de Campo,25,b'vista alegre',est_4_97,97.0,Calle de la Oca 74,40.38885,-3.73982,A,http://www.crtm.es,1.0,,Europe/Madrid,0.0
26,METRO,5,Alameda de Osuna-Casa de Campo,26,b'carabanchel',par_4_98,98.0,Gta del Ejército 1,40.38783,-3.7448699999999997,A,http://www.crtm.es,0.0,,Europe/Madrid,0.0
26,METRO,5,Alameda de Osuna-Casa de Campo,26,b'carabanchel',est_4_98,98.0,Gta del Ejército 1,40.38783,-3.7448699999999997,A,http://www.crtm.es,1.0,,Europe/Madrid,0.0
27,METRO,5,Alameda de Osuna-Casa de Campo,27,b'eugenia de montijo',par_4_99,99.0,Calle de Ocaña 86,40.38439,-3.75121,A,http://www.crtm.es,0.0,,Europe/Madrid,2.0
27,METRO,5,Alameda de Osuna-Casa de Campo,27,b'eugenia de montijo',est_4_99,99.0,Calle de Ocaña 86,40.38439,-3.75121,A,http://www.crtm.es,1.0,,Europe/Madrid,2.0
28,METRO,5,Alameda de Osuna-Casa de Campo,28,b'aluche',par_4_100,100.0,Calle de Valmojado 293,40.38563,-3.7608,A,http://www.crtm.es,0.0,est_90_1,,2.0
28,METRO,5,Alameda de Osuna-Casa de Campo,28,b'aluche',est_90_1,1.0,Calle de Valmojado 293,40.38563,-3.76085,A,http://www.crtm.es,1.0,,Europe/Madrid,0.0
29,METRO,5,Alameda de Osuna-Casa de Campo,29,b'empalme',par_4_101,101.0,Calle de Tembleque 105,40.390570000000004,-3.76535,A,http://www.crtm.es,0.0,,Europe/Madrid,2.0
29,METRO,5,Alameda de Osuna-Casa de Campo,29,b'empalme',est_4_101,101.0,Calle de Tembleque 105,40.390570000000004,-3.76535,A,http://www.crtm.es,1.0,,Europe/Madrid,2.0
30,METRO,5,Alameda de Osuna-Casa de Campo,30,b'campamento',par_4_102,102.0,Avda del Padre Piquer 7,40.39481,-3.76813,A,http://www.crtm.es,0.0,,Europe/Madrid,0.0
30,METRO,5,Alameda de Osuna-Casa de Campo,30,b'campamento',est_4_102,102.0,Avda del Padre Piquer 7,40.39481,-3.76813,A,http://www.crtm.es,1.0,,Europe/Madrid,0.0
31,METRO,5,Alameda de Osuna-Casa de Campo,31,b'casa de campo',par_4_103,103.0,Ctra del Zoo 1,40.403240000000004,-3.7610099999999997,A,http://www.crtm.es,0.0,,Europe/Madrid,2.0
31,METRO,5,Alameda de Osuna-Casa de Campo,31,b'casa de campo',est_4_103,103.0,Ctra del Zoo 1,40.403240000000004,-3.7610099999999997,A,http://www.crtm.es,1.0,,Europe/Madrid,2.0
31,METRO,5,Alameda de Osuna-Casa de Campo,31,b'casa de campo',par_4_201,201.0,Paseo de la Venta SN,40.403209999999994,-3.7610099999999997,A,http://www.crtm.es,0.0,est_4_103,,2.0
0,METRO,6,Circular,0,b'laguna',par_4_104,104.0,Calle de Cuart de Poblet 1,40.399229999999996,-3.7442900000000003,A,http://www.crtm.es,0.0,,Europe/Madrid,0.0
0,METRO,6,Circular,0,b'laguna',est_4_104,104.0,Calle de Cuart de Poblet 1,40.399229999999996,-3.7442900000000003,A,http://www.crtm.es,1.0,,Europe/Madrid,0.0
1,METRO,6,Circular,1,b'carpetana',par_4_105,105.0,Calle   Vía Carpetana 141,40.3927,-3.74099,A,http://www.crtm.es,0.0,,Europe/Madrid,0.0
1,METRO,6,Circular,1,b'carpetana',est_4_105,105.0,Calle   Vía Carpetana 141,40.3927,-3.74099,A,http://www.crtm.es,1.0,,Europe/Madrid,0.0
2,METRO,6,Circular,2,b'oporto',par_4_96,96.0,Gta del Valle de Oro 13,40.388459999999995,-3.7313199999999997,A,http://www.crtm.es,0.0,,Europe/Madrid,0.0
2,METRO,6,Circular,2,b'oporto',est_4_96,96.0,Gta del Valle de Oro 13,40.388459999999995,-3.7313199999999997,A,http://www.crtm.es,1.0,,Europe/Madrid,0.0
2,METRO,6,Circular,2,b'oporto',par_4_106,106.0,Gta del Valle de Oro 2,40.38847,-3.73126,A,http://www.crtm.es,0.0,est_4_96,,0.0
3,METRO,6,Circular,3,b'opanel',par_4_107,107.0,Calle del Valle de Oro 50 A,40.3869,-3.7231300000000003,A,http://www.crtm.es,0.0,,Europe/Madrid,0.0
3,METRO,6,Circular,3,b'opanel',est_4_107,107.0,Calle del Valle de Oro 50 A,40.3869,-3.7231300000000003,A,http://www.crtm.es,1.0,,Europe/Madrid,0.0
4,METRO,6,Circular,4,b'plaza eliptica',par_4_108,108.0,Plaza de Fernández Ladreda 2,40.3846,-3.7183699999999997,A,http://www.crtm.es,0.0,est_90_36,,2.0
4,METRO,6,Circular,4,b'plaza eliptica',par_4_206,206.0,Plaza de Fernández Ladreda 2,40.3846,-3.71825,A,http://www.crtm.es,0.0,est_90_36,,2.0
5,METRO,6,Circular,5,b'usera',par_4_109,109.0,Calle de Amparo Usera 44,40.3871,-3.7069,A,http://www.crtm.es,0.0,,Europe/Madrid,0.0
5,METRO,6,Circular,5,b'usera',est_4_109,109.0,Calle de Amparo Usera 44,40.3871,-3.7069,A,http://www.crtm.es,1.0,,Europe/Madrid,0.0
6,METRO,6,Circular,6,b'legazpi',par_4_43,43.0,Plaza de Legazpi 2 B,40.39116,-3.6951099999999997,A,http://www.crtm.es,0.0,,Europe/Madrid,2.0
6,METRO,6,Circular,6,b'legazpi',est_4_43,43.0,Plaza de Legazpi 2 B,40.39116,-3.6951099999999997,A,http://www.crtm.es,1.0,,Europe/Madrid,2.0
6,METRO,6,Circular,6,b'legazpi',par_4_110,110.0,Plaza de Legazpi 2 B,40.39116,-3.69505,A,http://www.crtm.es,0.0,est_4_43,,2.0
7,METRO,6,Circular,7,b'arganzuela - planetario',,,,,,,,,,,
8,METRO,6,Circular,8,b'',,,,,,,,,,,
9,METRO,6,Circular,9,b'mendez alvaro',par_4_111,111.0,Calle del Ombu 16,40.395379999999996,-3.67814,A,http://www.crtm.es,0.0,est_90_13,,0.0
10,METRO,6,Circular,10,b'pacifico',par_4_18,18.0,Avda de la Ciudad de Barcelona 79,40.40126,-3.6751400000000003,A,http://www.crtm.es,0.0,,Europe/Madrid,0.0
10,METRO,6,Circular,10,b'pacifico',est_4_18,18.0,Avda de la Ciudad de Barcelona 79,40.40126,-3.6751400000000003,A,http://www.crtm.es,1.0,,Europe/Madrid,0.0
10,METRO,6,Circular,10,b'pacifico',par_4_112,112.0,Calle de Andalucía 2,40.40207,-3.67386,A,http://www.crtm.es,0.0,est_4_18,,0.0
11,METRO,6,Circular,11,b'conde de casal',par_4_113,113.0,Plaza del Conde de Casal 3,40.40697,-3.67041,A,http://www.crtm.es,0.0,,Europe/Madrid,2.0
11,METRO,6,Circular,11,b'conde de casal',acc_4_113_302,113.0,Plaza del Conde de Casal 2,40.40702,-3.6706800000000004,,http://www.crtm.es,2.0,est_4_113,,0.0
11,METRO,6,Circular,11,b'conde de casal',est_4_113,113.0,Plaza del Conde de Casal 3,40.40697,-3.67041,A,http://www.crtm.es,1.0,,Europe/Madrid,2.0
12,METRO,6,Circular,12,b'sainz de baranda',par_4_114,114.0,Calle del Doctor Esquerdo 103,40.41507,-3.66951,A,http://www.crtm.es,0.0,,Europe/Madrid,0.0
12,METRO,6,Circular,12,b'sainz de baranda',acc_4_114_305,114.0,Calle del Doctor Esquerdo 62,40.41548,-3.66966,,http://www.crtm.es,2.0,est_4_114,,0.0
12,METRO,6,Circular,12,b'sainz de baranda',est_4_114,114.0,Calle del Doctor Esquerdo 103,40.41507,-3.66951,A,http://www.crtm.es,1.0,,Europe/Madrid,0.0
12,METRO,6,Circular,12,b'sainz de baranda',par_4_174,174.0,Calle del Doctor Esquerdo 103,40.41503,-3.66951,A,http://www.crtm.es,0.0,est_4_114,,0.0
13,METRO,6,Circular,13,"b""o'donnell""",,,,,,,,,,,
14,METRO,6,Circular,14,b'manuel becerra',par_4_29,29.0,Plaza de Manuel Becerra 1,40.4279,-3.66926,A,http://www.crtm.es,0.0,,Europe/Madrid,0.0
14,METRO,6,Circular,14,b'manuel becerra',est_4_29,29.0,Plaza de Manuel Becerra 1,40.4279,-3.66926,A,http://www.crtm.es,1.0,,Europe/Madrid,0.0
14,METRO,6,Circular,14,b'manuel becerra',par_4_116,116.0,Plaza de Manuel Becerra 1,40.4279,-3.6692099999999996,A,http://www.crtm.es,0.0,est_4_29,,0.0
15,METRO,6,Circular,15,b'diego de leon',par_4_63,63.0,Calle de Diego de León 69,40.43468,-3.67495,A,http://www.crtm.es,0.0,,Europe/Madrid,0.0
15,METRO,6,Circular,15,b'diego de leon',acc_4_63_177,63.0,Calle de Diego de León 69,40.43463,-3.67509,,http://www.crtm.es,2.0,est_4_63,,0.0
15,METRO,6,Circular,15,b'diego de leon',est_4_63,63.0,Calle de Diego de León 69,40.43468,-3.67495,A,http://www.crtm.es,1.0,,Europe/Madrid,0.0
15,METRO,6,Circular,15,b'diego de leon',par_4_82,82.0,Calle de Juan Bravo 58,40.43235,-3.67426,A,http://www.crtm.es,0.0,est_4_63,,0.0
15,METRO,6,Circular,15,b'diego de leon',par_4_117,117.0,Calle de Francisco Silvela 47,40.43295,-3.67294,A,http://www.crtm.es,0.0,est_4_63,,0.0
16,METRO,6,Circular,16,b'avenida de america',par_4_64,64.0,Avda de América 9 A,40.43803,-3.6766400000000004,A,http://www.crtm.es,0.0,est_90_4,,0.0
16,METRO,6,Circular,16,b'avenida de america',par_4_118,118.0,Avda de América 9 A,40.43804,-3.6765800000000004,A,http://www.crtm.es,0.0,est_90_4,,0.0
16,METRO,6,Circular,16,b'avenida de america',par_4_141,141.0,,40.43804,-3.67653,A,http://www.crtm.es,0.0,est_90_4,,0.0
16,METRO,6,Circular,16,b'avenida de america',par_4_170,170.0,Avda de América 9 A,40.43804,-3.6764699999999997,A,http://www.crtm.es,0.0,est_90_4,,0.0
17,METRO,6,Circular,17,b'republica argentina',par_4_119,119.0,Calle de Joaquín Costa 24,40.44379,-3.6840599999999997,A,http://www.crtm.es,0.0,,Europe/Madrid,0.0
17,METRO,6,Circular,17,b'republica argentina',acc_4_119_313,119.0,Plaza de la República Argentina 8,40.44495,-3.68488,,http://www.crtm.es,2.0,est_4_119,,0.0
17,METRO,6,Circular,17,b'republica argentina',est_4_119,119.0,Calle de Joaquín Costa 24,40.44379,-3.6840599999999997,A,http://www.crtm.es,1.0,,Europe/Madrid,0.0
18,METRO,6,Circular,18,b'nuevos ministerios',par_4_120,120.0,Calle de Raimundo Fernández Villaverde 67,40.44662,-3.6924099999999997,A,http://www.crtm.es,0.0,est_90_71,,2.0
18,METRO,6,Circular,18,b'nuevos ministerios',est_90_71,71.0,Calle de Raimundo Fernández Villaverde 67,40.44662,-3.69246,A,http://www.crtm.es,1.0,,Europe/Madrid,0.0
18,METRO,6,Circular,18,b'nuevos ministerios',par_4_155,155.0,Paseo de la Castellana 65,40.44655,-3.6924099999999997,A,http://www.crtm.es,0.0,est_90_71,,2.0
18,METRO,6,Circular,18,b'nuevos ministerios',par_4_193,193.0,Calle de Raimundo Fernández Villaverde 67,40.44659,-3.6924099999999997,A,http://www.crtm.es,0.0,est_90_71,,2.0
19,METRO,6,Circular,19,b'cuatro caminos',par_4_6,6.0,Gta de Cuatro Caminos 2,40.44697,-3.7039699999999995,A,http://www.crtm.es,0.0,,Europe/Madrid,2.0
19,METRO,6,Circular,19,b'cuatro caminos',est_4_6,6.0,Gta de Cuatro Caminos 2,40.44697,-3.7039699999999995,A,http://www.crtm.es,1.0,,Europe/Madrid,2.0
19,METRO,6,Circular,19,b'cuatro caminos',par_4_42,42.0,Gta de Cuatro Caminos 10,40.44697,-3.7039199999999997,A,http://www.crtm.es,0.0,est_4_6,,2.0
19,METRO,6,Circular,19,b'cuatro caminos',par_4_121,121.0,Gta de Cuatro Caminos 9,40.44697,-3.7038699999999998,A,http://www.crtm.es,0.0,est_4_6,,2.0
20,METRO,6,Circular,20,b'guzman el bueno',acc_4_52_154,52.0,Calle de Alberto Aguilera 62,40.43056,-3.71435,,http://www.crtm.es,2.0,est_4_52,,0.0
20,METRO,6,Circular,20,b'guzman el bueno',par_4_122,122.0,Calle de Guzmán el Bueno 118,40.44637,-3.7122900000000003,A,http://www.crtm.es,0.0,,Europe/Madrid,2.0
20,METRO,6,Circular,20,b'guzman el bueno',est_4_122,122.0,Calle de Guzmán el Bueno 118,40.44637,-3.7122900000000003,A,http://www.crtm.es,1.0,,Europe/Madrid,2.0
20,METRO,6,Circular,20,b'guzman el bueno',par_4_146,146.0,,40.446329999999996,-3.7122900000000003,A,http://www.crtm.es,0.0,est_4_122,,2.0
21,METRO,6,Circular,21,b'vicente aleixandre',par_4_123,123.0,Avda de Gregorio del Amo 4,40.44644,-3.7194300000000005,A,http://www.crtm.es,0.0,,Europe/Madrid,0.0
21,METRO,6,Circular,21,b'vicente aleixandre',est_4_123,123.0,Avda de Gregorio del Amo 4,40.44644,-3.7194300000000005,A,http://www.crtm.es,1.0,,Europe/Madrid,0.0
22,METRO,6,Circular,22,b'ciudad universitaria',par_4_124,124.0,Avda  Complutense 1,40.44356,-3.72678,A,http://www.crtm.es,0.0,,Europe/Madrid,2.0
22,METRO,6,Circular,22,b'ciudad universitaria',est_4_124,124.0,Avda  Complutense 1,40.44356,-3.72678,A,http://www.crtm.es,1.0,,Europe/Madrid,2.0
23,METRO,6,Circular,23,b'moncloa',par_4_53,53.0,Plaza de la Moncloa 1,40.43502,-3.71945,A,http://www.crtm.es,0.0,est_90_14,,2.0
23,METRO,6,Circular,23,b'moncloa',par_4_125,125.0,Paseo de Moret 1,40.43497,-3.71945,A,http://www.crtm.es,0.0,est_90_14,,2.0
24,METRO,6,Circular,24,b'arguelles',par_4_52,52.0,Calle de Alberto Aguilera 72,40.430659999999996,-3.71596,A,http://www.crtm.es,0.0,,Europe/Madrid,0.0
24,METRO,6,Circular,24,b'arguelles',est_4_52,52.0,Calle de Alberto Aguilera 72,40.430659999999996,-3.71596,A,http://www.crtm.es,1.0,,Europe/Madrid,0.0
24,METRO,6,Circular,24,b'arguelles',par_4_54,54.0,Calle de Alberto Aguilera 72,40.4306,-3.71596,A,http://www.crtm.es,0.0,est_4_52,,0.0
24,METRO,6,Circular,24,b'arguelles',par_4_126,126.0,Calle de Alberto Aguilera 72,40.43053,-3.71596,A,http://www.crtm.es,0.0,est_4_52,,2.0
25,METRO,6,Circular,25,b'principe pio',par_4_127,127.0,Paseo de la Florida 2,40.42107,-3.7203199999999996,A,http://www.crtm.es,0.0,est_90_18,,1.0
25,METRO,6,Circular,25,b'principe pio',par_4_198,198.0,Paseo de la Florida 2,40.42103,-3.72033,A,http://www.crtm.es,0.0,est_90_18,,1.0
25,METRO,6,Circular,25,b'principe pio',par_4_238,238.0,Paseo de la Florida 2,40.42099,-3.72033,A,http://www.crtm.es,0.0,est_90_18,,1.0
26,METRO,6,Circular,26,b'puerta del angel',par_4_128,128.0,Paseo de Extremadura 26,40.4139,-3.72724,A,http://www.crtm.es,0.0,,Europe/Madrid,0.0
26,METRO,6,Circular,26,b'puerta del angel',est_4_128,128.0,Paseo de Extremadura 26,40.4139,-3.72724,A,http://www.crtm.es,1.0,,Europe/Madrid,0.0
27,METRO,6,Circular,27,b'alto de extremadura',par_4_129,129.0,Paseo de Extremadura 154,40.409929999999996,-3.73894,A,http://www.crtm.es,0.0,,Europe/Madrid,0.0
27,METRO,6,Circular,27,b'alto de extremadura',est_4_129,129.0,Paseo de Extremadura 154,40.409929999999996,-3.73894,A,http://www.crtm.es,1.0,,Europe/Madrid,0.0
28,METRO,6,Circular,28,b'lucero',par_4_130,130.0,Calle de las Higueras 47,40.4051,-3.74534,A,http://www.crtm.es,0.0,,Europe/Madrid,2.0
28,METRO,6,Circular,28,b'lucero',est_4_130,130.0,Calle de las Higueras 47,40.4051,-3.74534,A,http://www.crtm.es,1.0,,Europe/Madrid,2.0
0,METRO,7,Hospital del Henares-Pitis,0,b'hospital del henares',par_4_296,296.0,Cmno del Tiro SN,40.417609999999996,-3.53453,B1,http://www.crtm.es,0.0,,Europe/Madrid,2.0
0,METRO,7,Hospital del Henares-Pitis,0,b'hospital del henares',acc_4_296_761,296.0,Camino  Labor SN,40.417559999999995,-3.53442,,http://www.crtm.es,2.0,est_4_296,,0.0
0,METRO,7,Hospital del Henares-Pitis,0,b'hospital del henares',est_4_296,296.0,Cmno del Tiro SN,40.417609999999996,-3.53453,B1,http://www.crtm.es,1.0,,Europe/Madrid,2.0
1,METRO,7,Hospital del Henares-Pitis,1,b'henares',par_4_292,292.0,Avda de Algorta 12,40.417770000000004,-3.5271800000000004,B1,http://www.crtm.es,0.0,,Europe/Madrid,2.0
1,METRO,7,Hospital del Henares-Pitis,1,b'henares',est_4_292,292.0,Avda de Algorta 12,40.417770000000004,-3.5271800000000004,B1,http://www.crtm.es,1.0,,Europe/Madrid,2.0
2,METRO,7,Hospital del Henares-Pitis,2,b'jarama',par_4_291,291.0,Plaza   Guernica 1,40.42295,-3.52549,B1,http://www.crtm.es,0.0,,Europe/Madrid,2.0
2,METRO,7,Hospital del Henares-Pitis,2,b'jarama',est_4_291,291.0,Plaza   Guernica 1,40.42295,-3.52549,B1,http://www.crtm.es,1.0,,Europe/Madrid,2.0
3,METRO,7,Hospital del Henares-Pitis,3,b'san fernando',par_4_290,290.0,Calle de Gonzalo de Córdoba 24,40.424409999999995,-3.5354099999999997,B1,http://www.crtm.es,0.0,,Europe/Madrid,2.0
3,METRO,7,Hospital del Henares-Pitis,3,b'san fernando',est_4_290,290.0,Calle de Gonzalo de Córdoba 24,40.424409999999995,-3.5354099999999997,B1,http://www.crtm.es,1.0,,Europe/Madrid,2.0
4,METRO,7,Hospital del Henares-Pitis,4,b'la rambla',par_4_289,289.0,Calle   Honduras 2,40.42514,-3.5479199999999995,B1,http://www.crtm.es,0.0,,Europe/Madrid,2.0
4,METRO,7,Hospital del Henares-Pitis,4,b'la rambla',est_4_289,289.0,Calle   Honduras 2,40.42514,-3.5479199999999995,B1,http://www.crtm.es,1.0,,Europe/Madrid,2.0
5,METRO,7,Hospital del Henares-Pitis,5,b'coslada central',par_4_288,288.0,Calle del Doctor Fleming 41,40.42374,-3.5611900000000003,B1,http://www.crtm.es,0.0,,Europe/Madrid,2.0
5,METRO,7,Hospital del Henares-Pitis,5,b'coslada central',est_4_288,288.0,Calle del Doctor Fleming 41,40.42374,-3.5611900000000003,B1,http://www.crtm.es,1.0,,Europe/Madrid,2.0
6,METRO,7,Hospital del Henares-Pitis,6,b'barrio del puerto',par_4_287,287.0,Avda de España 8,40.4225,-3.5691900000000003,B1,http://www.crtm.es,0.0,,Europe/Madrid,2.0
6,METRO,7,Hospital del Henares-Pitis,6,b'barrio del puerto',est_4_287,287.0,Avda de España 8,40.4225,-3.5691900000000003,B1,http://www.crtm.es,1.0,,Europe/Madrid,2.0
7,METRO,7,Hospital del Henares-Pitis,7,b'estadio metropolitano',par_4_286,286.0,Avda de Arcentales 28,40.43339,-3.60015,A,http://www.crtm.es,0.0,,Europe/Madrid,2.0
7,METRO,7,Hospital del Henares-Pitis,7,b'estadio metropolitano',acc_4_286_710,286.0,Avda de Arcentales SN,40.433840000000004,-3.6010199999999997,,http://www.crtm.es,2.0,est_4_286,,0.0
7,METRO,7,Hospital del Henares-Pitis,7,b'estadio metropolitano',est_4_286,286.0,Avda de Arcentales 28,40.43339,-3.60015,A,http://www.crtm.es,1.0,,Europe/Madrid,2.0
8,METRO,7,Hospital del Henares-Pitis,8,b'las musas',par_4_132,132.0,,40.432990000000004,-3.60788,A,http://www.crtm.es,0.0,,Europe/Madrid,0.0
8,METRO,7,Hospital del Henares-Pitis,8,b'las musas',est_4_132,132.0,,40.432990000000004,-3.60788,A,http://www.crtm.es,1.0,,Europe/Madrid,0.0
9,METRO,7,Hospital del Henares-Pitis,9,b'san blas',par_4_133,133.0,,40.42799,-3.6154699999999997,A,http://www.crtm.es,0.0,,Europe/Madrid,0.0
9,METRO,7,Hospital del Henares-Pitis,9,b'san blas',est_4_133,133.0,,40.42799,-3.6154699999999997,A,http://www.crtm.es,1.0,,Europe/Madrid,0.0
10,METRO,7,Hospital del Henares-Pitis,10,b'simancas',par_4_134,134.0,,40.42799,-3.62572,A,http://www.crtm.es,0.0,,Europe/Madrid,0.0
10,METRO,7,Hospital del Henares-Pitis,10,b'simancas',est_4_134,134.0,,40.42799,-3.62572,A,http://www.crtm.es,1.0,,Europe/Madrid,0.0
11,METRO,7,Hospital del Henares-Pitis,11,b'garcia noblejas',par_4_135,135.0,,40.42842,-3.6333,A,http://www.crtm.es,0.0,,Europe/Madrid,0.0
11,METRO,7,Hospital del Henares-Pitis,11,b'garcia noblejas',est_4_135,135.0,,40.42842,-3.6333,A,http://www.crtm.es,1.0,,Europe/Madrid,0.0
12,METRO,7,Hospital del Henares-Pitis,12,b'ascao',par_4_136,136.0,,40.430209999999995,-3.64106,A,http://www.crtm.es,0.0,,Europe/Madrid,0.0
12,METRO,7,Hospital del Henares-Pitis,12,b'ascao',acc_4_136_354,136.0,Calle de Ascao 29,40.430170000000004,-3.64115,,http://www.crtm.es,2.0,est_4_136,,0.0
12,METRO,7,Hospital del Henares-Pitis,12,b'ascao',est_4_136,136.0,,40.430209999999995,-3.64106,A,http://www.crtm.es,1.0,,Europe/Madrid,0.0
13,METRO,7,Hospital del Henares-Pitis,13,b'pueblo nuevo',par_4_78,78.0,Calle de Alcalá 372,40.43569,-3.6428199999999995,A,http://www.crtm.es,0.0,,Europe/Madrid,0.0
13,METRO,7,Hospital del Henares-Pitis,13,b'pueblo nuevo',est_4_78,78.0,Calle de Alcalá 372,40.43569,-3.6428199999999995,A,http://www.crtm.es,1.0,,Europe/Madrid,0.0
13,METRO,7,Hospital del Henares-Pitis,13,b'pueblo nuevo',par_4_137,137.0,,40.43566,-3.6428199999999995,A,http://www.crtm.es,0.0,est_4_78,,0.0
14,METRO,7,Hospital del Henares-Pitis,14,b'barrio de la concepcion',par_4_138,138.0,,40.4391,-3.6519999999999997,A,http://www.crtm.es,0.0,,Europe/Madrid,0.0
14,METRO,7,Hospital del Henares-Pitis,14,b'barrio de la concepcion',est_4_138,138.0,,40.4391,-3.6519999999999997,A,http://www.crtm.es,1.0,,Europe/Madrid,0.0
15,METRO,7,Hospital del Henares-Pitis,15,b'parque de las avenidas',par_4_139,139.0,,40.43945,-3.6629699999999996,A,http://www.crtm.es,0.0,,Europe/Madrid,0.0
15,METRO,7,Hospital del Henares-Pitis,15,b'parque de las avenidas',est_4_139,139.0,,40.43945,-3.6629699999999996,A,http://www.crtm.es,1.0,,Europe/Madrid,0.0
16,METRO,7,Hospital del Henares-Pitis,16,b'cartagena',par_4_140,140.0,,40.43934,-3.67215,A,http://www.crtm.es,0.0,,Europe/Madrid,0.0
16,METRO,7,Hospital del Henares-Pitis,16,b'cartagena',est_4_140,140.0,,40.43934,-3.67215,A,http://www.crtm.es,1.0,,Europe/Madrid,0.0
17,METRO,7,Hospital del Henares-Pitis,17,b'avenida de america',par_4_64,64.0,Avda de América 9 A,40.43803,-3.6766400000000004,A,http://www.crtm.es,0.0,est_90_4,,0.0
17,METRO,7,Hospital del Henares-Pitis,17,b'avenida de america',par_4_118,118.0,Avda de América 9 A,40.43804,-3.6765800000000004,A,http://www.crtm.es,0.0,est_90_4,,0.0
17,METRO,7,Hospital del Henares-Pitis,17,b'avenida de america',par_4_141,141.0,,40.43804,-3.67653,A,http://www.crtm.es,0.0,est_90_4,,0.0
17,METRO,7,Hospital del Henares-Pitis,17,b'avenida de america',par_4_170,170.0,Avda de América 9 A,40.43804,-3.6764699999999997,A,http://www.crtm.es,0.0,est_90_4,,0.0
18,METRO,7,Hospital del Henares-Pitis,18,b'gregorio maranon',par_4_142,142.0,,40.43825,-3.6914800000000003,A,http://www.crtm.es,0.0,,Europe/Madrid,2.0
18,METRO,7,Hospital del Henares-Pitis,18,b'gregorio maranon',est_4_142,142.0,,40.43825,-3.6914800000000003,A,http://www.crtm.es,1.0,,Europe/Madrid,2.0
18,METRO,7,Hospital del Henares-Pitis,18,b'gregorio maranon',par_4_194,194.0,Calle de Miguel Ángel 29,40.437529999999995,-3.69127,A,http://www.crtm.es,0.0,est_4_142,,2.0
19,METRO,7,Hospital del Henares-Pitis,19,b'alonso cano',par_4_143,143.0,,40.43838,-3.69925,A,http://www.crtm.es,0.0,,Europe/Madrid,2.0
19,METRO,7,Hospital del Henares-Pitis,19,b'alonso cano',est_4_143,143.0,,40.43838,-3.69925,A,http://www.crtm.es,1.0,,Europe/Madrid,2.0
20,METRO,7,Hospital del Henares-Pitis,20,b'canal',par_4_41,41.0,Calle de Bravo Murillo 40,40.43841,-3.70433,A,http://www.crtm.es,0.0,,Europe/Madrid,2.0
20,METRO,7,Hospital del Henares-Pitis,20,b'canal',est_4_41,41.0,Calle de Bravo Murillo 40,40.43841,-3.70433,A,http://www.crtm.es,1.0,,Europe/Madrid,2.0
20,METRO,7,Hospital del Henares-Pitis,20,b'canal',par_4_144,144.0,,40.4387,-3.7048900000000002,A,http://www.crtm.es,0.0,est_4_41,,2.0
21,METRO,7,Hospital del Henares-Pitis,21,b'islas filipinas',par_4_145,145.0,,40.43907,-3.7137300000000004,A,http://www.crtm.es,0.0,,Europe/Madrid,2.0
21,METRO,7,Hospital del Henares-Pitis,21,b'islas filipinas',est_4_145,145.0,,40.43907,-3.7137300000000004,A,http://www.crtm.es,1.0,,Europe/Madrid,2.0
22,METRO,7,Hospital del Henares-Pitis,22,b'guzman el bueno',acc_4_52_154,52.0,Calle de Alberto Aguilera 62,40.43056,-3.71435,,http://www.crtm.es,2.0,est_4_52,,0.0
22,METRO,7,Hospital del Henares-Pitis,22,b'guzman el bueno',par_4_122,122.0,Calle de Guzmán el Bueno 118,40.44637,-3.7122900000000003,A,http://www.crtm.es,0.0,,Europe/Madrid,2.0
22,METRO,7,Hospital del Henares-Pitis,22,b'guzman el bueno',est_4_122,122.0,Calle de Guzmán el Bueno 118,40.44637,-3.7122900000000003,A,http://www.crtm.es,1.0,,Europe/Madrid,2.0
22,METRO,7,Hospital del Henares-Pitis,22,b'guzman el bueno',par_4_146,146.0,,40.446329999999996,-3.7122900000000003,A,http://www.crtm.es,0.0,est_4_122,,2.0
23,METRO,7,Hospital del Henares-Pitis,23,b'francos rodriguez',par_4_147,147.0,,40.45648,-3.71239,A,http://www.crtm.es,0.0,,Europe/Madrid,2.0
23,METRO,7,Hospital del Henares-Pitis,23,b'francos rodriguez',est_4_147,147.0,,40.45648,-3.71239,A,http://www.crtm.es,1.0,,Europe/Madrid,2.0
24,METRO,7,Hospital del Henares-Pitis,24,b'valdezarza',par_4_148,148.0,,40.46482,-3.7159699999999996,A,http://www.crtm.es,0.0,,Europe/Madrid,2.0
24,METRO,7,Hospital del Henares-Pitis,24,b'valdezarza',est_4_148,148.0,,40.46482,-3.7159699999999996,A,http://www.crtm.es,1.0,,Europe/Madrid,2.0
25,METRO,7,Hospital del Henares-Pitis,25,b'antonio machado',par_4_149,149.0,,40.47022,-3.71769,A,http://www.crtm.es,0.0,,Europe/Madrid,2.0
25,METRO,7,Hospital del Henares-Pitis,25,b'antonio machado',est_4_149,149.0,,40.47022,-3.71769,A,http://www.crtm.es,1.0,,Europe/Madrid,2.0
26,METRO,7,Hospital del Henares-Pitis,26,b'penagrande',par_4_150,150.0,,40.47592,-3.71582,A,http://www.crtm.es,0.0,,Europe/Madrid,0.0
26,METRO,7,Hospital del Henares-Pitis,26,b'penagrande',est_4_150,150.0,,40.47592,-3.71582,A,http://www.crtm.es,1.0,,Europe/Madrid,0.0
27,METRO,7,Hospital del Henares-Pitis,27,b'avenida de la ilustracion',,,,,,,,,,,
28,METRO,7,Hospital del Henares-Pitis,28,b'lacoma',par_4_152,152.0,,40.48502,-3.72305,A,http://www.crtm.es,0.0,,Europe/Madrid,2.0
28,METRO,7,Hospital del Henares-Pitis,28,b'lacoma',est_4_152,152.0,,40.48502,-3.72305,A,http://www.crtm.es,1.0,,Europe/Madrid,2.0
29,METRO,7,Hospital del Henares-Pitis,29,b'arroyofresno',par_4_153,153.0,,40.4909,-3.7260400000000002,A,http://www.crtm.es,0.0,,Europe/Madrid,0.0
29,METRO,7,Hospital del Henares-Pitis,29,b'arroyofresno',est_4_153,153.0,,40.4909,-3.7260400000000002,A,http://www.crtm.es,1.0,,Europe/Madrid,0.0
30,METRO,7,Hospital del Henares-Pitis,30,b'pitis',par_4_154,154.0,,40.49511,-3.72589,A,http://www.crtm.es,0.0,,Europe/Madrid,2.0
30,METRO,7,Hospital del Henares-Pitis,30,b'pitis',est_4_154,154.0,,40.49511,-3.72589,A,http://www.crtm.es,1.0,,Europe/Madrid,2.0
0,METRO,8,Nuevos Ministerios-Aeropuerto T4,0,b'nuevos ministerios',par_4_120,120.0,Calle de Raimundo Fernández Villaverde 67,40.44662,-3.6924099999999997,A,http://www.crtm.es,0.0,est_90_71,,2.0
0,METRO,8,Nuevos Ministerios-Aeropuerto T4,0,b'nuevos ministerios',est_90_71,71.0,Calle de Raimundo Fernández Villaverde 67,40.44662,-3.69246,A,http://www.crtm.es,1.0,,Europe/Madrid,0.0
0,METRO,8,Nuevos Ministerios-Aeropuerto T4,0,b'nuevos ministerios',par_4_155,155.0,Paseo de la Castellana 65,40.44655,-3.6924099999999997,A,http://www.crtm.es,0.0,est_90_71,,2.0
0,METRO,8,Nuevos Ministerios-Aeropuerto T4,0,b'nuevos ministerios',par_4_193,193.0,Calle de Raimundo Fernández Villaverde 67,40.44659,-3.6924099999999997,A,http://www.crtm.es,0.0,est_90_71,,2.0
1,METRO,8,Nuevos Ministerios-Aeropuerto T4,1,b'colombia',par_4_156,156.0,Calle del Príncipe de Vergara 258,40.456340000000004,-3.6768199999999998,A,http://www.crtm.es,0.0,,Europe/Madrid,2.0
1,METRO,8,Nuevos Ministerios-Aeropuerto T4,1,b'colombia',est_4_156,156.0,Calle del Príncipe de Vergara 258,40.456340000000004,-3.6768199999999998,A,http://www.crtm.es,1.0,,Europe/Madrid,2.0
1,METRO,8,Nuevos Ministerios-Aeropuerto T4,1,b'colombia',par_4_167,167.0,Calle del Príncipe de Vergara 269,40.45749,-3.67694,A,http://www.crtm.es,0.0,est_4_156,,2.0
2,METRO,8,Nuevos Ministerios-Aeropuerto T4,2,b'pinar del rey',par_4_258,258.0,Avda de la Gran Vía de Hortaleza 47,40.468,-3.6486699999999996,A,http://www.crtm.es,0.0,,Europe/Madrid,2.0
2,METRO,8,Nuevos Ministerios-Aeropuerto T4,2,b'pinar del rey',est_4_258,258.0,Avda de la Gran Vía de Hortaleza 47,40.468,-3.6486699999999996,A,http://www.crtm.es,1.0,,Europe/Madrid,2.0
3,METRO,8,Nuevos Ministerios-Aeropuerto T4,3,b'mar de cristal',par_4_71,71.0,Gta del Mar de Cristal 1 B,40.469429999999996,-3.6383199999999998,A,http://www.crtm.es,0.0,,Europe/Madrid,2.0
3,METRO,8,Nuevos Ministerios-Aeropuerto T4,3,b'mar de cristal',est_4_71,71.0,Gta del Mar de Cristal 1 B,40.469429999999996,-3.6383199999999998,A,http://www.crtm.es,1.0,,Europe/Madrid,2.0
3,METRO,8,Nuevos Ministerios-Aeropuerto T4,3,b'mar de cristal',par_4_157,157.0,Gta de Mar de Cristal 1,40.46938,-3.6383199999999998,A,http://www.crtm.es,0.0,est_4_71,,2.0
4,METRO,8,Nuevos Ministerios-Aeropuerto T4,4,b'feria de madrid',par_4_158,158.0,Avda del Partenón 5,40.46389,-3.6162,A,http://www.crtm.es,0.0,,Europe/Madrid,2.0
4,METRO,8,Nuevos Ministerios-Aeropuerto T4,4,b'feria de madrid',est_4_158,158.0,Avda del Partenón 5,40.46389,-3.6162,A,http://www.crtm.es,1.0,,Europe/Madrid,2.0
5,METRO,8,Nuevos Ministerios-Aeropuerto T4,5,b'aeropuerto t1-t2-t3',,,,,,,,,,,
6,METRO,8,Nuevos Ministerios-Aeropuerto T4,6,b'barajas',par_4_160,160.0,Cmno  Viejo de Hortaleza 10,40.475770000000004,-3.58253,A,http://www.crtm.es,0.0,,Europe/Madrid,2.0
6,METRO,8,Nuevos Ministerios-Aeropuerto T4,6,b'barajas',est_4_160,160.0,Cmno  Viejo de Hortaleza 10,40.475770000000004,-3.58253,A,http://www.crtm.es,1.0,,Europe/Madrid,2.0
7,METRO,8,Nuevos Ministerios-Aeropuerto T4,7,b'aeropuerto t4',par_4_285,285.0,Ctra de Alcobendas a Barajas SN,40.49177,-3.59325,A,http://www.crtm.es,0.0,est_90_33,,2.0
7,METRO,8,Nuevos Ministerios-Aeropuerto T4,7,b'aeropuerto t4',est_90_33,33.0,Ctra de Alcobendas a Barajas SN,40.49176,-3.5935599999999996,A,http://www.crtm.es,1.0,,Europe/Madrid,0.0
0,METRO,9,Paco de Lucía-Arganda del Rey,0,b'paco de lucia',par_4_345,345.0,Calle de Monasterio de Las Huelgas 5,40.49965,-3.70908,,http://www.crtm.es,0.0,,Europe/Madrid,0.0
0,METRO,9,Paco de Lucía-Arganda del Rey,0,b'paco de lucia',acc_4_345_1075,345.0,Calle de Monasterio de Las Huelgas 5,40.499629999999996,-3.70916,,http://www.crtm.es,2.0,est_4_345,,0.0
0,METRO,9,Paco de Lucía-Arganda del Rey,0,b'paco de lucia',est_4_345,345.0,Calle de Monasterio de Las Huelgas 5,40.49965,-3.70908,,http://www.crtm.es,1.0,,Europe/Madrid,0.0
1,METRO,9,Paco de Lucía-Arganda del Rey,1,b'mirasierra',acc_4_109_295,109.0,Calle de Mirasierra 41,40.388220000000004,-3.7037400000000003,,http://www.crtm.es,2.0,est_4_109,,0.0
1,METRO,9,Paco de Lucía-Arganda del Rey,1,b'mirasierra',par_4_326,326.0,Avda del Ventisquero de la Condesa 28,40.4911,-3.71634,,http://www.crtm.es,0.0,,Europe/Madrid,0.0
1,METRO,9,Paco de Lucía-Arganda del Rey,1,b'mirasierra',acc_4_326_1068,326.0,Avda del Ventisquero de la Condesa 28,40.49103,-3.71635,,http://www.crtm.es,2.0,est_4_326,,0.0
1,METRO,9,Paco de Lucía-Arganda del Rey,1,b'mirasierra',est_4_326,326.0,Avda del Ventisquero de la Condesa 28,40.4911,-3.71634,,http://www.crtm.es,1.0,,Europe/Madrid,0.0
2,METRO,9,Paco de Lucía-Arganda del Rey,2,b'herrera oria',par_4_161,161.0,Calle de Valencia de Don Juan 1,40.48466,-3.7075099999999996,A,http://www.crtm.es,0.0,,Europe/Madrid,0.0
2,METRO,9,Paco de Lucía-Arganda del Rey,2,b'herrera oria',est_4_161,161.0,Calle de Valencia de Don Juan 1,40.48466,-3.7075099999999996,A,http://www.crtm.es,1.0,,Europe/Madrid,0.0
3,METRO,9,Paco de Lucía-Arganda del Rey,3,b'barrio del pilar',par_4_162,162.0,Calle de Ginzo de Limia 22,40.476890000000004,-3.70316,A,http://www.crtm.es,0.0,,Europe/Madrid,0.0
3,METRO,9,Paco de Lucía-Arganda del Rey,3,b'barrio del pilar',est_4_162,162.0,Calle de Ginzo de Limia 22,40.476890000000004,-3.70316,A,http://www.crtm.es,1.0,,Europe/Madrid,0.0
4,METRO,9,Paco de Lucía-Arganda del Rey,4,b'ventilla',par_4_163,163.0,Avda de Asturias 39,40.469440000000006,-3.6958800000000003,A,http://www.crtm.es,0.0,,Europe/Madrid,0.0
4,METRO,9,Paco de Lucía-Arganda del Rey,4,b'ventilla',est_4_163,163.0,Avda de Asturias 39,40.469440000000006,-3.6958800000000003,A,http://www.crtm.es,1.0,,Europe/Madrid,0.0
5,METRO,9,Paco de Lucía-Arganda del Rey,5,b'plaza de castilla',par_4_1,1.0,Paseo de la Castellana 189,40.4669,-3.68917,A,http://www.crtm.es,0.0,est_90_21,,0.0
5,METRO,9,Paco de Lucía-Arganda del Rey,5,b'plaza de castilla',acc_4_1_1,1.0,Paseo de la Castellana 189,40.46682,-3.6891800000000003,,http://www.crtm.es,2.0,est_90_21,,0.0
5,METRO,9,Paco de Lucía-Arganda del Rey,5,b'plaza de castilla',par_4_164,164.0,Paseo de la Castellana 189,40.4669,-3.6891300000000005,A,http://www.crtm.es,0.0,est_90_21,,0.0
5,METRO,9,Paco de Lucía-Arganda del Rey,5,b'plaza de castilla',par_4_190,190.0,Paseo de la Castellana 216,40.4669,-3.68909,A,http://www.crtm.es,0.0,est_90_21,,0.0
6,METRO,9,Paco de Lucía-Arganda del Rey,6,b'duque de pastrana',par_4_165,165.0,Calle de Mateo Inurria 41,40.46763,-3.6791699999999996,A,http://www.crtm.es,0.0,,Europe/Madrid,0.0
6,METRO,9,Paco de Lucía-Arganda del Rey,6,b'duque de pastrana',est_4_165,165.0,Calle de Mateo Inurria 41,40.46763,-3.6791699999999996,A,http://www.crtm.es,1.0,,Europe/Madrid,0.0
7,METRO,9,Paco de Lucía-Arganda del Rey,7,b'pio xii',par_4_166,166.0,Avda de Pío XII 27,40.463,-3.67579,A,http://www.crtm.es,0.0,,Europe/Madrid,0.0
7,METRO,9,Paco de Lucía-Arganda del Rey,7,b'pio xii',est_4_166,166.0,Avda de Pío XII 27,40.463,-3.67579,A,http://www.crtm.es,1.0,,Europe/Madrid,0.0
8,METRO,9,Paco de Lucía-Arganda del Rey,8,b'colombia',par_4_156,156.0,Calle del Príncipe de Vergara 258,40.456340000000004,-3.6768199999999998,A,http://www.crtm.es,0.0,,Europe/Madrid,2.0
8,METRO,9,Paco de Lucía-Arganda del Rey,8,b'colombia',est_4_156,156.0,Calle del Príncipe de Vergara 258,40.456340000000004,-3.6768199999999998,A,http://www.crtm.es,1.0,,Europe/Madrid,2.0
8,METRO,9,Paco de Lucía-Arganda del Rey,8,b'colombia',par_4_167,167.0,Calle del Príncipe de Vergara 269,40.45749,-3.67694,A,http://www.crtm.es,0.0,est_4_156,,2.0
9,METRO,9,Paco de Lucía-Arganda del Rey,9,b'concha espina',par_4_168,168.0,Calle del Príncipe de Vergara 210,40.45145,-3.6773800000000003,A,http://www.crtm.es,0.0,,Europe/Madrid,0.0
9,METRO,9,Paco de Lucía-Arganda del Rey,9,b'concha espina',est_4_168,168.0,Calle del Príncipe de Vergara 210,40.45145,-3.6773800000000003,A,http://www.crtm.es,1.0,,Europe/Madrid,0.0
10,METRO,9,Paco de Lucía-Arganda del Rey,10,b'cruz del rayo',par_4_169,169.0,Calle del Príncipe de Vergara 138,40.44427,-3.67821,A,http://www.crtm.es,0.0,,Europe/Madrid,0.0
10,METRO,9,Paco de Lucía-Arganda del Rey,10,b'cruz del rayo',est_4_169,169.0,Calle del Príncipe de Vergara 138,40.44427,-3.67821,A,http://www.crtm.es,1.0,,Europe/Madrid,0.0
11,METRO,9,Paco de Lucía-Arganda del Rey,11,b'avenida de america',par_4_64,64.0,Avda de América 9 A,40.43803,-3.6766400000000004,A,http://www.crtm.es,0.0,est_90_4,,0.0
11,METRO,9,Paco de Lucía-Arganda del Rey,11,b'avenida de america',par_4_118,118.0,Avda de América 9 A,40.43804,-3.6765800000000004,A,http://www.crtm.es,0.0,est_90_4,,0.0
11,METRO,9,Paco de Lucía-Arganda del Rey,11,b'avenida de america',par_4_141,141.0,,40.43804,-3.67653,A,http://www.crtm.es,0.0,est_90_4,,0.0
11,METRO,9,Paco de Lucía-Arganda del Rey,11,b'avenida de america',par_4_170,170.0,Avda de América 9 A,40.43804,-3.6764699999999997,A,http://www.crtm.es,0.0,est_90_4,,0.0
12,METRO,9,Paco de Lucía-Arganda del Rey,12,b'nunez de balboa',par_4_83,83.0,Calle de Juan Bravo 20,40.43278,-3.68258,A,http://www.crtm.es,0.0,,Europe/Madrid,0.0
12,METRO,9,Paco de Lucía-Arganda del Rey,12,b'nunez de balboa',acc_4_83_240,83.0,Calle de Nuñez de Balboa 85,40.43277,-3.6823,,http://www.crtm.es,2.0,est_4_83,,0.0
12,METRO,9,Paco de Lucía-Arganda del Rey,12,b'nunez de balboa',est_4_83,83.0,Calle de Juan Bravo 20,40.43278,-3.68258,A,http://www.crtm.es,1.0,,Europe/Madrid,0.0
12,METRO,9,Paco de Lucía-Arganda del Rey,12,b'nunez de balboa',par_4_171,171.0,Plaza del Marqués de Salamanca 9,40.43013,-3.67936,A,http://www.crtm.es,0.0,est_4_83,,0.0
13,METRO,9,Paco de Lucía-Arganda del Rey,13,b'principe de vergara',par_4_31,31.0,Calle de Alcalá 123,40.422940000000004,-3.6801199999999996,A,http://www.crtm.es,0.0,,Europe/Madrid,0.0
13,METRO,9,Paco de Lucía-Arganda del Rey,13,b'principe de vergara',est_4_31,31.0,Calle de Alcalá 123,40.422940000000004,-3.6801199999999996,A,http://www.crtm.es,1.0,,Europe/Madrid,0.0
13,METRO,9,Paco de Lucía-Arganda del Rey,13,b'principe de vergara',acc_4_168_435,168.0,Calle de Príncipe de Vergara 246,40.452329999999996,-3.67725,,http://www.crtm.es,2.0,est_4_168,,0.0
13,METRO,9,Paco de Lucía-Arganda del Rey,13,b'principe de vergara',par_4_172,172.0,Calle del Príncipe de Vergara 12,40.42418,-3.68024,A,http://www.crtm.es,0.0,est_4_31,,0.0
14,METRO,9,Paco de Lucía-Arganda del Rey,14,b'ibiza',par_4_173,173.0,Calle de Ibiza 1,40.41839,-3.67858,A,http://www.crtm.es,0.0,,Europe/Madrid,0.0
14,METRO,9,Paco de Lucía-Arganda del Rey,14,b'ibiza',acc_4_173_440,173.0,Calle de Ibiza 7,40.41836,-3.67803,,http://www.crtm.es,2.0,est_4_173,,0.0
14,METRO,9,Paco de Lucía-Arganda del Rey,14,b'ibiza',est_4_173,173.0,Calle de Ibiza 1,40.41839,-3.67858,A,http://www.crtm.es,1.0,,Europe/Madrid,0.0
15,METRO,9,Paco de Lucía-Arganda del Rey,15,b'sainz de baranda',par_4_114,114.0,Calle del Doctor Esquerdo 103,40.41507,-3.66951,A,http://www.crtm.es,0.0,,Europe/Madrid,0.0
15,METRO,9,Paco de Lucía-Arganda del Rey,15,b'sainz de baranda',acc_4_114_305,114.0,Calle del Doctor Esquerdo 62,40.41548,-3.66966,,http://www.crtm.es,2.0,est_4_114,,0.0
15,METRO,9,Paco de Lucía-Arganda del Rey,15,b'sainz de baranda',est_4_114,114.0,Calle del Doctor Esquerdo 103,40.41507,-3.66951,A,http://www.crtm.es,1.0,,Europe/Madrid,0.0
15,METRO,9,Paco de Lucía-Arganda del Rey,15,b'sainz de baranda',par_4_174,174.0,Calle del Doctor Esquerdo 103,40.41503,-3.66951,A,http://www.crtm.es,0.0,est_4_114,,0.0
16,METRO,9,Paco de Lucía-Arganda del Rey,16,b'estrella',par_4_175,175.0,Calle del Camino de los Vinateros 1,40.41147,-3.6617900000000003,A,http://www.crtm.es,0.0,,Europe/Madrid,0.0
16,METRO,9,Paco de Lucía-Arganda del Rey,16,b'estrella',est_4_175,175.0,Calle del Camino de los Vinateros 1,40.41147,-3.6617900000000003,A,http://www.crtm.es,1.0,,Europe/Madrid,0.0
17,METRO,9,Paco de Lucía-Arganda del Rey,17,b'vinateros',par_4_176,176.0,Calle del Camino de los Vinateros 70,40.41024,-3.6527300000000005,A,http://www.crtm.es,0.0,,Europe/Madrid,0.0
17,METRO,9,Paco de Lucía-Arganda del Rey,17,b'vinateros',acc_4_177_450,177.0,Calle del Pico de los Artilleros 126,40.40538,-3.64149,,http://www.crtm.es,2.0,est_4_177,,0.0
17,METRO,9,Paco de Lucía-Arganda del Rey,17,b'vinateros',est_4_176,176.0,Calle del Camino de los Vinateros 70,40.41024,-3.6527300000000005,A,http://www.crtm.es,1.0,,Europe/Madrid,0.0
18,METRO,9,Paco de Lucía-Arganda del Rey,18,b'artilleros',par_4_177,177.0,Calle del Camino de los Vinateros 210,40.40522,-3.64181,A,http://www.crtm.es,0.0,,Europe/Madrid,0.0
18,METRO,9,Paco de Lucía-Arganda del Rey,18,b'artilleros',est_4_177,177.0,Calle del Camino de los Vinateros 210,40.40522,-3.64181,A,http://www.crtm.es,1.0,,Europe/Madrid,0.0
19,METRO,9,Paco de Lucía-Arganda del Rey,19,b'pavones',par_4_178,178.0,Calle de la Hacienda de Pavones 342,40.40051,-3.6351199999999997,A,http://www.crtm.es,0.0,,Europe/Madrid,0.0
19,METRO,9,Paco de Lucía-Arganda del Rey,19,b'pavones',est_4_178,178.0,Calle de la Hacienda de Pavones 342,40.40051,-3.6351199999999997,A,http://www.crtm.es,1.0,,Europe/Madrid,0.0
20,METRO,9,Paco de Lucía-Arganda del Rey,20,b'valdebernardo',par_4_179,179.0,Bulv de Indalecio Prieto 26,40.40005,-3.6215599999999997,A,http://www.crtm.es,0.0,,Europe/Madrid,2.0
20,METRO,9,Paco de Lucía-Arganda del Rey,20,b'valdebernardo',est_4_179,179.0,Bulv de Indalecio Prieto 26,40.40005,-3.6215599999999997,A,http://www.crtm.es,1.0,,Europe/Madrid,2.0
21,METRO,9,Paco de Lucía-Arganda del Rey,21,b'vicalvaro',par_4_180,180.0,Calle de San Cipriano 11,40.40422,-3.60886,A,http://www.crtm.es,0.0,,Europe/Madrid,2.0
21,METRO,9,Paco de Lucía-Arganda del Rey,21,b'vicalvaro',est_4_180,180.0,Calle de San Cipriano 11,40.40422,-3.60886,A,http://www.crtm.es,1.0,,Europe/Madrid,2.0
22,METRO,9,Paco de Lucía-Arganda del Rey,22,b'san cipriano',par_4_181,181.0,Calle de San Cipriano 68,40.40381,-3.60239,A,http://www.crtm.es,0.0,,Europe/Madrid,2.0
22,METRO,9,Paco de Lucía-Arganda del Rey,22,b'san cipriano',est_4_181,181.0,Calle de San Cipriano 68,40.40381,-3.60239,A,http://www.crtm.es,1.0,,Europe/Madrid,2.0
23,METRO,9,Paco de Lucía-Arganda del Rey,23,b'puerta de arganda',par_4_182,182.0,Calle de San Cipriano 85,40.40132,-3.5959800000000004,A,http://www.crtm.es,0.0,,Europe/Madrid,2.0
23,METRO,9,Paco de Lucía-Arganda del Rey,23,b'puerta de arganda',est_4_182,182.0,Calle de San Cipriano 85,40.40132,-3.5959800000000004,A,http://www.crtm.es,1.0,,Europe/Madrid,2.0
24,METRO,9,Paco de Lucía-Arganda del Rey,24,b'rivas urbanizaciones',par_4_183,183.0,Plaza de Galicia 5,40.36677,-3.54728,B1,http://www.crtm.es,0.0,,Europe/Madrid,2.0
24,METRO,9,Paco de Lucía-Arganda del Rey,24,b'rivas urbanizaciones',est_4_183,183.0,Plaza de Galicia 5,40.36677,-3.54728,B1,http://www.crtm.es,1.0,,Europe/Madrid,2.0
25,METRO,9,Paco de Lucía-Arganda del Rey,25,b'rivas futura',par_4_300,300.0,Calle   Concepción Arenal 1,40.34134,-3.5247900000000003,B1,http://www.crtm.es,0.0,,Europe/Madrid,2.0
25,METRO,9,Paco de Lucía-Arganda del Rey,25,b'rivas futura',est_4_300,300.0,Calle   Concepción Arenal 1,40.34134,-3.5247900000000003,B1,http://www.crtm.es,1.0,,Europe/Madrid,2.0
26,METRO,9,Paco de Lucía-Arganda del Rey,26,b'rivas vaciamadrid',par_4_184,184.0,Calle   Areneros 6,40.32837,-3.5206,B2,http://www.crtm.es,0.0,,Europe/Madrid,2.0
26,METRO,9,Paco de Lucía-Arganda del Rey,26,b'rivas vaciamadrid',est_4_184,184.0,Calle   Areneros 6,40.32837,-3.5206,B2,http://www.crtm.es,1.0,,Europe/Madrid,2.0
27,METRO,9,Paco de Lucía-Arganda del Rey,27,b'la poveda',par_4_185,185.0,Parcela   9017 Polígono 1 S/N,40.31902,-3.47745,B3,http://www.crtm.es,0.0,,Europe/Madrid,2.0
27,METRO,9,Paco de Lucía-Arganda del Rey,27,b'la poveda',est_4_185,185.0,Parcela   9017 Polígono 1 S/N,40.31902,-3.47745,B3,http://www.crtm.es,1.0,,Europe/Madrid,2.0
28,METRO,9,Paco de Lucía-Arganda del Rey,28,b'arganda del rey',par_4_186,186.0,Paseo de la Estación 37,40.303670000000004,-3.44752,B3,http://www.crtm.es,0.0,,Europe/Madrid,2.0
28,METRO,9,Paco de Lucía-Arganda del Rey,28,b'arganda del rey',est_4_186,186.0,Paseo de la Estación 37,40.303670000000004,-3.44752,B3,http://www.crtm.es,1.0,,Europe/Madrid,2.0
0,METRO,10,Hospital Infanta Sofía-Puerta del Sur,0,b'hospital infanta sofia',par_4_284,284.0,Paseo   Europa 11,40.55977,-3.61145,B1,http://www.crtm.es,0.0,,Europe/Madrid,2.0
0,METRO,10,Hospital Infanta Sofía-Puerta del Sur,0,b'hospital infanta sofia',acc_4_284_672,284.0,Paseo  Europa SN,40.55976,-3.6106599999999998,,http://www.crtm.es,2.0,est_4_284,,0.0
0,METRO,10,Hospital Infanta Sofía-Puerta del Sur,0,b'hospital infanta sofia',est_4_284,284.0,Paseo   Europa 11,40.55977,-3.61145,B1,http://www.crtm.es,1.0,,Europe/Madrid,2.0
1,METRO,10,Hospital Infanta Sofía-Puerta del Sur,1,b'reyes catolicos',par_4_283,283.0,Avda de la Plaza de Toros 7,40.55037,-3.6234,B1,http://www.crtm.es,0.0,,Europe/Madrid,2.0
1,METRO,10,Hospital Infanta Sofía-Puerta del Sur,1,b'reyes catolicos',est_4_283,283.0,Avda de la Plaza de Toros 7,40.55037,-3.6234,B1,http://www.crtm.es,1.0,,Europe/Madrid,2.0
2,METRO,10,Hospital Infanta Sofía-Puerta del Sur,2,b'baunatal',par_4_282,282.0,Avda de las Lomas del Rey 2,40.55442,-3.63513,B1,http://www.crtm.es,0.0,,Europe/Madrid,2.0
2,METRO,10,Hospital Infanta Sofía-Puerta del Sur,2,b'baunatal',est_4_282,282.0,Avda de las Lomas del Rey 2,40.55442,-3.63513,B1,http://www.crtm.es,1.0,,Europe/Madrid,2.0
3,METRO,10,Hospital Infanta Sofía-Puerta del Sur,3,b'manuel de falla',par_4_281,281.0,Calle   Manuel de Falla 59,40.55048,-3.6468800000000003,B1,http://www.crtm.es,0.0,,Europe/Madrid,2.0
3,METRO,10,Hospital Infanta Sofía-Puerta del Sur,3,b'manuel de falla',acc_4_281_678,281.0,Calle  Manuel de Falla 59,40.55044,-3.6470800000000003,,http://www.crtm.es,2.0,est_4_281,,0.0
3,METRO,10,Hospital Infanta Sofía-Puerta del Sur,3,b'manuel de falla',est_4_281,281.0,Calle   Manuel de Falla 59,40.55048,-3.6468800000000003,B1,http://www.crtm.es,1.0,,Europe/Madrid,2.0
4,METRO,10,Hospital Infanta Sofía-Puerta del Sur,4,b'marques de la valdavia',par_4_280,280.0,Calle del Marqués de la Valdavia 21,40.54102,-3.6373800000000003,B1,http://www.crtm.es,0.0,,Europe/Madrid,2.0
4,METRO,10,Hospital Infanta Sofía-Puerta del Sur,4,b'marques de la valdavia',acc_4_280_680,280.0,Calle del Marqués de la Valdavia 21,40.54112,-3.6373900000000003,,http://www.crtm.es,2.0,est_4_280,,0.0
4,METRO,10,Hospital Infanta Sofía-Puerta del Sur,4,b'marques de la valdavia',est_4_280,280.0,Calle del Marqués de la Valdavia 21,40.54102,-3.6373800000000003,B1,http://www.crtm.es,1.0,,Europe/Madrid,2.0
5,METRO,10,Hospital Infanta Sofía-Puerta del Sur,5,b'la moraleja',par_4_279,279.0,Avda de la Ermita 5,40.53196,-3.63556,B1,http://www.crtm.es,0.0,,Europe/Madrid,2.0
5,METRO,10,Hospital Infanta Sofía-Puerta del Sur,5,b'la moraleja',est_4_279,279.0,Avda de la Ermita 5,40.53196,-3.63556,B1,http://www.crtm.es,1.0,,Europe/Madrid,2.0
6,METRO,10,Hospital Infanta Sofía-Puerta del Sur,6,b'la granja',par_4_278,278.0,Calle de Sepúlveda 1,40.5276,-3.6585900000000002,B1,http://www.crtm.es,0.0,,Europe/Madrid,2.0
6,METRO,10,Hospital Infanta Sofía-Puerta del Sur,6,b'la granja',acc_4_278_685,278.0,Calle de Sepúlveda 1,40.52763,-3.65865,,http://www.crtm.es,2.0,est_4_278,,0.0
6,METRO,10,Hospital Infanta Sofía-Puerta del Sur,6,b'la granja',est_4_278,278.0,Calle de Sepúlveda 1,40.5276,-3.6585900000000002,B1,http://www.crtm.es,1.0,,Europe/Madrid,2.0
7,METRO,10,Hospital Infanta Sofía-Puerta del Sur,7,b'rda. de la comunicacion',,,,,,,,,,,
8,METRO,10,Hospital Infanta Sofía-Puerta del Sur,8,b'las tablas',par_4_276,276.0,Calle de Palas de Rey 30,40.50833,-3.6694400000000003,A,http://www.crtm.es,0.0,,Europe/Madrid,2.0
8,METRO,10,Hospital Infanta Sofía-Puerta del Sur,8,b'las tablas',est_4_276,276.0,Calle de Palas de Rey 30,40.50833,-3.6694400000000003,A,http://www.crtm.es,1.0,,Europe/Madrid,2.0
9,METRO,10,Hospital Infanta Sofía-Puerta del Sur,9,b'montecarmelo',par_4_275,275.0,Avda de Monasterio de Silos 63 A,40.50525,-3.69575,A,http://www.crtm.es,0.0,,Europe/Madrid,2.0
9,METRO,10,Hospital Infanta Sofía-Puerta del Sur,9,b'montecarmelo',est_4_275,275.0,Avda de Monasterio de Silos 63 A,40.50525,-3.69575,A,http://www.crtm.es,1.0,,Europe/Madrid,2.0
10,METRO,10,Hospital Infanta Sofía-Puerta del Sur,10,b'tres olivos',par_4_274,274.0,Acces   M-607 SN,40.5012,-3.6952,A,http://www.crtm.es,0.0,,Europe/Madrid,2.0
10,METRO,10,Hospital Infanta Sofía-Puerta del Sur,10,b'tres olivos',est_4_274,274.0,Acces   M-607 SN,40.5012,-3.6952,A,http://www.crtm.es,1.0,,Europe/Madrid,2.0
11,METRO,10,Hospital Infanta Sofía-Puerta del Sur,11,b'fuencarral',acc_4_10_35,10.0,Calle de Fuencarral 78,40.4262,-3.7010300000000003,,http://www.crtm.es,2.0,est_4_10,,0.0
11,METRO,10,Hospital Infanta Sofía-Puerta del Sur,11,b'fuencarral',acc_4_11_39,11.0,Calle  Gran vía 28,40.42013,-3.70181,,http://www.crtm.es,2.0,est_4_11,,0.0
11,METRO,10,Hospital Infanta Sofía-Puerta del Sur,11,b'fuencarral',acc_4_9_28,9.0,Gta de Bilbao 5,40.42926,-3.7019300000000004,,http://www.crtm.es,2.0,est_4_9,,0.0
11,METRO,10,Hospital Infanta Sofía-Puerta del Sur,11,b'fuencarral',acc_4_40_123,40.0,Gta de Quevedo 1,40.43311,-3.70434,,http://www.crtm.es,2.0,est_4_40,,0.0
11,METRO,10,Hospital Infanta Sofía-Puerta del Sur,11,b'fuencarral',par_4_187,187.0,Calle de la Fuente Chica 21,40.495090000000005,-3.6928300000000003,A,http://www.crtm.es,0.0,,Europe/Madrid,0.0
11,METRO,10,Hospital Infanta Sofía-Puerta del Sur,11,b'fuencarral',est_4_187,187.0,Calle de la Fuente Chica 21,40.495090000000005,-3.6928300000000003,A,http://www.crtm.es,1.0,,Europe/Madrid,0.0
12,METRO,10,Hospital Infanta Sofía-Puerta del Sur,12,b'begona',par_4_188,188.0,Paseo de la Castellana 261,40.48041,-3.68585,A,http://www.crtm.es,0.0,,Europe/Madrid,0.0
12,METRO,10,Hospital Infanta Sofía-Puerta del Sur,12,b'begona',est_4_188,188.0,Paseo de la Castellana 261,40.48041,-3.68585,A,http://www.crtm.es,1.0,,Europe/Madrid,0.0
13,METRO,10,Hospital Infanta Sofía-Puerta del Sur,13,b'chamartin',par_4_261,261.0,Calle de Agustín de Foxá 40,40.47203,-3.6825900000000003,A,http://www.crtm.es,0.0,est_90_25,,2.0
13,METRO,10,Hospital Infanta Sofía-Puerta del Sur,13,b'chamartin',acc_4_261_474,261.0,Calle del Padre Francisco Palau y Quer SN,40.47314,-3.6830800000000004,,http://www.crtm.es,2.0,est_90_25,,0.0
13,METRO,10,Hospital Infanta Sofía-Puerta del Sur,13,b'chamartin',est_90_25,25.0,Calle de Agustín de Foxá 40,40.4721,-3.68269,A,http://www.crtm.es,1.0,,Europe/Madrid,0.0
13,METRO,10,Hospital Infanta Sofía-Puerta del Sur,13,b'chamartin',par_4_189,189.0,Calle de Agustín de Foxá 40,40.4721,-3.6825900000000003,A,http://www.crtm.es,0.0,est_90_25,,2.0
14,METRO,10,Hospital Infanta Sofía-Puerta del Sur,14,b'plaza de castilla',par_4_1,1.0,Paseo de la Castellana 189,40.4669,-3.68917,A,http://www.crtm.es,0.0,est_90_21,,0.0
14,METRO,10,Hospital Infanta Sofía-Puerta del Sur,14,b'plaza de castilla',acc_4_1_1,1.0,Paseo de la Castellana 189,40.46682,-3.6891800000000003,,http://www.crtm.es,2.0,est_90_21,,0.0
14,METRO,10,Hospital Infanta Sofía-Puerta del Sur,14,b'plaza de castilla',par_4_164,164.0,Paseo de la Castellana 189,40.4669,-3.6891300000000005,A,http://www.crtm.es,0.0,est_90_21,,0.0
14,METRO,10,Hospital Infanta Sofía-Puerta del Sur,14,b'plaza de castilla',par_4_190,190.0,Paseo de la Castellana 216,40.4669,-3.68909,A,http://www.crtm.es,0.0,est_90_21,,0.0
15,METRO,10,Hospital Infanta Sofía-Puerta del Sur,15,b'cuzco',par_4_191,191.0,Paseo de la Castellana 162,40.458420000000004,-3.68985,A,http://www.crtm.es,0.0,,Europe/Madrid,0.0
15,METRO,10,Hospital Infanta Sofía-Puerta del Sur,15,b'cuzco',est_4_191,191.0,Paseo de la Castellana 162,40.458420000000004,-3.68985,A,http://www.crtm.es,1.0,,Europe/Madrid,0.0
16,METRO,10,Hospital Infanta Sofía-Puerta del Sur,16,b'santiago bernabeu',par_4_192,192.0,Paseo de la Castellana 97,40.45159,-3.69038,A,http://www.crtm.es,0.0,,Europe/Madrid,0.0
16,METRO,10,Hospital Infanta Sofía-Puerta del Sur,16,b'santiago bernabeu',est_4_192,192.0,Paseo de la Castellana 97,40.45159,-3.69038,A,http://www.crtm.es,1.0,,Europe/Madrid,0.0
17,METRO,10,Hospital Infanta Sofía-Puerta del Sur,17,b'nuevos ministerios',par_4_120,120.0,Calle de Raimundo Fernández Villaverde 67,40.44662,-3.6924099999999997,A,http://www.crtm.es,0.0,est_90_71,,2.0
17,METRO,10,Hospital Infanta Sofía-Puerta del Sur,17,b'nuevos ministerios',est_90_71,71.0,Calle de Raimundo Fernández Villaverde 67,40.44662,-3.69246,A,http://www.crtm.es,1.0,,Europe/Madrid,0.0
17,METRO,10,Hospital Infanta Sofía-Puerta del Sur,17,b'nuevos ministerios',par_4_155,155.0,Paseo de la Castellana 65,40.44655,-3.6924099999999997,A,http://www.crtm.es,0.0,est_90_71,,2.0
17,METRO,10,Hospital Infanta Sofía-Puerta del Sur,17,b'nuevos ministerios',par_4_193,193.0,Calle de Raimundo Fernández Villaverde 67,40.44659,-3.6924099999999997,A,http://www.crtm.es,0.0,est_90_71,,2.0
18,METRO,10,Hospital Infanta Sofía-Puerta del Sur,18,b'gregorio maranon',par_4_142,142.0,,40.43825,-3.6914800000000003,A,http://www.crtm.es,0.0,,Europe/Madrid,2.0
18,METRO,10,Hospital Infanta Sofía-Puerta del Sur,18,b'gregorio maranon',est_4_142,142.0,,40.43825,-3.6914800000000003,A,http://www.crtm.es,1.0,,Europe/Madrid,2.0
18,METRO,10,Hospital Infanta Sofía-Puerta del Sur,18,b'gregorio maranon',par_4_194,194.0,Calle de Miguel Ángel 29,40.437529999999995,-3.69127,A,http://www.crtm.es,0.0,est_4_142,,2.0
19,METRO,10,Hospital Infanta Sofía-Puerta del Sur,19,b'alonso martinez',par_4_57,57.0,Plaza de Alonso Martínez 4,40.42772,-3.6959400000000002,A,http://www.crtm.es,0.0,,Europe/Madrid,0.0
19,METRO,10,Hospital Infanta Sofía-Puerta del Sur,19,b'alonso martinez',est_4_57,57.0,Plaza de Alonso Martínez 4,40.42772,-3.6959400000000002,A,http://www.crtm.es,1.0,,Europe/Madrid,0.0
19,METRO,10,Hospital Infanta Sofía-Puerta del Sur,19,b'alonso martinez',par_4_85,85.0,Calle de Almagro 4,40.42828,-3.6950199999999995,A,http://www.crtm.es,0.0,est_4_57,,0.0
19,METRO,10,Hospital Infanta Sofía-Puerta del Sur,19,b'alonso martinez',par_4_195,195.0,Calle de Manuel González Longoria 14,40.42853,-3.6964300000000003,A,http://www.crtm.es,0.0,est_4_57,,0.0
20,METRO,10,Hospital Infanta Sofía-Puerta del Sur,20,b'tribunal',par_4_10,10.0,Calle de Fuencarral 81,40.426190000000005,-3.7011,A,http://www.crtm.es,0.0,,Europe/Madrid,0.0
20,METRO,10,Hospital Infanta Sofía-Puerta del Sur,20,b'tribunal',est_4_10,10.0,Calle de Fuencarral 81,40.426190000000005,-3.7011,A,http://www.crtm.es,1.0,,Europe/Madrid,0.0
20,METRO,10,Hospital Infanta Sofía-Puerta del Sur,20,b'tribunal',par_4_196,196.0,Calle de la Palma 5,40.426,-3.7020800000000005,A,http://www.crtm.es,0.0,est_4_10,,0.0
21,METRO,10,Hospital Infanta Sofía-Puerta del Sur,21,b'plaza de espana',par_4_50,50.0,Plaza de España 1,40.42342,-3.7112,A,http://www.crtm.es,0.0,,Europe/Madrid,2.0
21,METRO,10,Hospital Infanta Sofía-Puerta del Sur,21,b'plaza de espana',acc_4_50_145,50.0,Plaza de España 18,40.42415,-3.71196,,http://www.crtm.es,2.0,est_4_50,,0.0
21,METRO,10,Hospital Infanta Sofía-Puerta del Sur,21,b'plaza de espana',est_4_50,50.0,Plaza de España 1,40.42342,-3.7112,A,http://www.crtm.es,1.0,,Europe/Madrid,2.0
21,METRO,10,Hospital Infanta Sofía-Puerta del Sur,21,b'plaza de espana',par_4_197,197.0,Calle de los Reyes 10,40.42409,-3.7097,A,http://www.crtm.es,0.0,est_4_50,,2.0
22,METRO,10,Hospital Infanta Sofía-Puerta del Sur,22,b'principe pio',par_4_127,127.0,Paseo de la Florida 2,40.42107,-3.7203199999999996,A,http://www.crtm.es,0.0,est_90_18,,1.0
22,METRO,10,Hospital Infanta Sofía-Puerta del Sur,22,b'principe pio',par_4_198,198.0,Paseo de la Florida 2,40.42103,-3.72033,A,http://www.crtm.es,0.0,est_90_18,,1.0
22,METRO,10,Hospital Infanta Sofía-Puerta del Sur,22,b'principe pio',par_4_238,238.0,Paseo de la Florida 2,40.42099,-3.72033,A,http://www.crtm.es,0.0,est_90_18,,1.0
23,METRO,10,Hospital Infanta Sofía-Puerta del Sur,23,b'lago',par_4_199,199.0,Ronda del Lago 3,40.41641,-3.7356300000000005,A,http://www.crtm.es,0.0,,Europe/Madrid,2.0
23,METRO,10,Hospital Infanta Sofía-Puerta del Sur,23,b'lago',est_4_199,199.0,Ronda del Lago 3,40.41641,-3.7356300000000005,A,http://www.crtm.es,1.0,,Europe/Madrid,2.0
24,METRO,10,Hospital Infanta Sofía-Puerta del Sur,24,b'batan',par_4_200,200.0,Paseo de la Venta 1,40.40786,-3.75311,A,http://www.crtm.es,0.0,,Europe/Madrid,2.0
24,METRO,10,Hospital Infanta Sofía-Puerta del Sur,24,b'batan',est_4_200,200.0,Paseo de la Venta 1,40.40786,-3.75311,A,http://www.crtm.es,1.0,,Europe/Madrid,2.0
25,METRO,10,Hospital Infanta Sofía-Puerta del Sur,25,b'casa de campo',par_4_103,103.0,Ctra del Zoo 1,40.403240000000004,-3.7610099999999997,A,http://www.crtm.es,0.0,,Europe/Madrid,2.0
25,METRO,10,Hospital Infanta Sofía-Puerta del Sur,25,b'casa de campo',est_4_103,103.0,Ctra del Zoo 1,40.403240000000004,-3.7610099999999997,A,http://www.crtm.es,1.0,,Europe/Madrid,2.0
25,METRO,10,Hospital Infanta Sofía-Puerta del Sur,25,b'casa de campo',par_4_201,201.0,Paseo de la Venta SN,40.403209999999994,-3.7610099999999997,A,http://www.crtm.es,0.0,est_4_103,,2.0
26,METRO,10,Hospital Infanta Sofía-Puerta del Sur,26,b'colonia jardin',par_4_202,202.0,Calle de Arenas de San Pedro 2,40.39698,-3.7746199999999996,A,http://www.crtm.es,0.0,,Europe/Madrid,2.0
26,METRO,10,Hospital Infanta Sofía-Puerta del Sur,26,b'colonia jardin',est_4_202,202.0,Calle de Arenas de San Pedro 2,40.39698,-3.7746199999999996,A,http://www.crtm.es,1.0,,Europe/Madrid,2.0
27,METRO,10,Hospital Infanta Sofía-Puerta del Sur,27,b'aviacion espanola',par_4_257,257.0,Paseo de Extremadura 463,40.38364,-3.7839199999999997,A,http://www.crtm.es,0.0,,Europe/Madrid,2.0
27,METRO,10,Hospital Infanta Sofía-Puerta del Sur,27,b'aviacion espanola',est_4_257,257.0,Paseo de Extremadura 463,40.38364,-3.7839199999999997,A,http://www.crtm.es,1.0,,Europe/Madrid,2.0
28,METRO,10,Hospital Infanta Sofía-Puerta del Sur,28,b'cuatro vientos',par_4_203,203.0,Col   Militar de Cuatro Vientos 6 B,40.37771,-3.79152,A,http://www.crtm.es,0.0,,Europe/Madrid,2.0
28,METRO,10,Hospital Infanta Sofía-Puerta del Sur,28,b'cuatro vientos',est_4_203,203.0,Col   Militar de Cuatro Vientos 6 B,40.37771,-3.79152,A,http://www.crtm.es,1.0,,Europe/Madrid,2.0
29,METRO,10,Hospital Infanta Sofía-Puerta del Sur,29,b'joaquin vilumbrales',par_4_204,204.0,Avda de la Libertad 13,40.34985,-3.8072,B1,http://www.crtm.es,0.0,,Europe/Madrid,2.0
29,METRO,10,Hospital Infanta Sofía-Puerta del Sur,29,b'joaquin vilumbrales',est_4_204,204.0,Avda de la Libertad 13,40.34985,-3.8072,B1,http://www.crtm.es,1.0,,Europe/Madrid,2.0
30,METRO,10,Hospital Infanta Sofía-Puerta del Sur,30,b'puerta del sur',par_4_205,205.0,Avda de la Libertad 2,40.345240000000004,-3.8121099999999997,B1,http://www.crtm.es,0.0,,Europe/Madrid,2.0
30,METRO,10,Hospital Infanta Sofía-Puerta del Sur,30,b'puerta del sur',est_4_205,205.0,Avda de la Libertad 2,40.345240000000004,-3.8121099999999997,B1,http://www.crtm.es,1.0,,Europe/Madrid,2.0
30,METRO,10,Hospital Infanta Sofía-Puerta del Sur,30,b'puerta del sur',par_4_209,209.0,Avda de Leganés 52,40.34543,-3.81249,B1,http://www.crtm.es,0.0,est_4_205,,2.0
0,METRO,11,Plaza Elíptica-La Fortuna,0,b'plaza eliptica',par_4_108,108.0,Plaza de Fernández Ladreda 2,40.3846,-3.7183699999999997,A,http://www.crtm.es,0.0,est_90_36,,2.0
0,METRO,11,Plaza Elíptica-La Fortuna,0,b'plaza eliptica',par_4_206,206.0,Plaza de Fernández Ladreda 2,40.3846,-3.71825,A,http://www.crtm.es,0.0,est_90_36,,2.0
1,METRO,11,Plaza Elíptica-La Fortuna,1,b'abrantes',par_4_207,207.0,Avda de Abrantes 77,40.380829999999996,-3.7279,A,http://www.crtm.es,0.0,,Europe/Madrid,2.0
1,METRO,11,Plaza Elíptica-La Fortuna,1,b'abrantes',est_4_207,207.0,Avda de Abrantes 77,40.380829999999996,-3.7279,A,http://www.crtm.es,1.0,,Europe/Madrid,2.0
2,METRO,11,Plaza Elíptica-La Fortuna,2,b'pan bendito',par_4_208,208.0,Avda de Abrantes 289,40.37587,-3.7341699999999998,A,http://www.crtm.es,0.0,,Europe/Madrid,2.0
2,METRO,11,Plaza Elíptica-La Fortuna,2,b'pan bendito',est_4_208,208.0,Avda de Abrantes 289,40.37587,-3.7341699999999998,A,http://www.crtm.es,1.0,,Europe/Madrid,2.0
3,METRO,11,Plaza Elíptica-La Fortuna,3,b'san francisco',acc_4_90_247,90.0,Calle de Toledo 56,40.41108,-3.70868,,http://www.crtm.es,2.0,est_4_90,,0.0
3,METRO,11,Plaza Elíptica-La Fortuna,3,b'san francisco',par_4_254,254.0,Avda de los Poblados 102,40.3736,-3.7391,A,http://www.crtm.es,0.0,,Europe/Madrid,2.0
3,METRO,11,Plaza Elíptica-La Fortuna,3,b'san francisco',est_4_254,254.0,Avda de los Poblados 102,40.3736,-3.7391,A,http://www.crtm.es,1.0,,Europe/Madrid,2.0
4,METRO,11,Plaza Elíptica-La Fortuna,4,b'carabanchel alto',par_4_255,255.0,Avda de Carabanchel Alto 40,40.372,-3.7519099999999996,A,http://www.crtm.es,0.0,,Europe/Madrid,2.0
4,METRO,11,Plaza Elíptica-La Fortuna,4,b'carabanchel alto',est_4_255,255.0,Avda de Carabanchel Alto 40,40.372,-3.7519099999999996,A,http://www.crtm.es,1.0,,Europe/Madrid,2.0
5,METRO,11,Plaza Elíptica-La Fortuna,5,b'la peseta',par_4_256,256.0,Calle de Salvador Allende 3,40.36422,-3.7569,A,http://www.crtm.es,0.0,,Europe/Madrid,2.0
5,METRO,11,Plaza Elíptica-La Fortuna,5,b'la peseta',est_4_256,256.0,Calle de Salvador Allende 3,40.36422,-3.7569,A,http://www.crtm.es,1.0,,Europe/Madrid,2.0
6,METRO,11,Plaza Elíptica-La Fortuna,6,b'la fortuna',par_4_305,305.0,Calle   San José 40,40.35795,-3.7778300000000002,,http://www.crtm.es,0.0,,Europe/Madrid,0.0
6,METRO,11,Plaza Elíptica-La Fortuna,6,b'la fortuna',est_4_305,305.0,Calle   San José 40,40.35795,-3.7778300000000002,,http://www.crtm.es,1.0,,Europe/Madrid,0.0
0,METRO,12,Metrosur,0,b'puerta del sur',par_4_205,205.0,Avda de la Libertad 2,40.345240000000004,-3.8121099999999997,B1,http://www.crtm.es,0.0,,Europe/Madrid,2.0
0,METRO,12,Metrosur,0,b'puerta del sur',est_4_205,205.0,Avda de la Libertad 2,40.345240000000004,-3.8121099999999997,B1,http://www.crtm.es,1.0,,Europe/Madrid,2.0
0,METRO,12,Metrosur,0,b'puerta del sur',par_4_209,209.0,Avda de Leganés 52,40.34543,-3.81249,B1,http://www.crtm.es,0.0,est_4_205,,2.0
1,METRO,12,Metrosur,1,b'parque lisboa',par_4_210,210.0,Calle de Porto Lagos 7,40.34969,-3.8212,B1,http://www.crtm.es,0.0,,Europe/Madrid,2.0
1,METRO,12,Metrosur,1,b'parque lisboa',est_4_210,210.0,Calle de Porto Lagos 7,40.34969,-3.8212,B1,http://www.crtm.es,1.0,,Europe/Madrid,2.0
2,METRO,12,Metrosur,2,b'alcorcon central',par_4_211,211.0,Avda de Móstoles 12,40.35008,-3.83178,B1,http://www.crtm.es,0.0,,Europe/Madrid,2.0
2,METRO,12,Metrosur,2,b'alcorcon central',est_4_211,211.0,Avda de Móstoles 12,40.35008,-3.83178,B1,http://www.crtm.es,1.0,,Europe/Madrid,2.0
3,METRO,12,Metrosur,3,b'parque oeste',par_4_212,212.0,Calle de Estambul 5,40.345890000000004,-3.84934,B1,http://www.crtm.es,0.0,,Europe/Madrid,2.0
3,METRO,12,Metrosur,3,b'parque oeste',est_4_212,212.0,Calle de Estambul 5,40.345890000000004,-3.84934,B1,http://www.crtm.es,1.0,,Europe/Madrid,2.0
4,METRO,12,Metrosur,4,b'universidad rey juan carlos',par_4_213,213.0,Calle   Tulipán 2,40.33512,-3.87218,B2,http://www.crtm.es,0.0,,Europe/Madrid,2.0
4,METRO,12,Metrosur,4,b'universidad rey juan carlos',est_4_213,213.0,Calle   Tulipán 2,40.33512,-3.87218,B2,http://www.crtm.es,1.0,,Europe/Madrid,2.0
5,METRO,12,Metrosur,5,b'mostoles central',par_4_214,214.0,Paseo de la Estación 13,40.3285,-3.86354,B2,http://www.crtm.es,0.0,,Europe/Madrid,2.0
5,METRO,12,Metrosur,5,b'mostoles central',est_4_214,214.0,Paseo de la Estación 13,40.3285,-3.86354,B2,http://www.crtm.es,1.0,,Europe/Madrid,2.0
6,METRO,12,Metrosur,6,b'pradillo',par_4_215,215.0,Calle de Agustina de Aragón 23,40.32168,-3.86489,B2,http://www.crtm.es,0.0,,Europe/Madrid,2.0
6,METRO,12,Metrosur,6,b'pradillo',est_4_215,215.0,Calle de Agustina de Aragón 23,40.32168,-3.86489,B2,http://www.crtm.es,1.0,,Europe/Madrid,2.0
7,METRO,12,Metrosur,7,b'hospital de mostoles',par_4_216,216.0,Calle del Río Sella 10,40.316520000000004,-3.87471,B2,http://www.crtm.es,0.0,,Europe/Madrid,2.0
7,METRO,12,Metrosur,7,b'hospital de mostoles',est_4_216,216.0,Calle del Río Sella 10,40.316520000000004,-3.87471,B2,http://www.crtm.es,1.0,,Europe/Madrid,2.0
8,METRO,12,Metrosur,8,b'manuela malasana',acc_4_9_30,9.0,Gta de Bilbao 7,40.42876,-3.70206,,http://www.crtm.es,2.0,est_4_9,,0.0
8,METRO,12,Metrosur,8,b'manuela malasana',par_4_217,217.0,Plaza   Sol de 9001 SN,40.30903,-3.8640199999999996,B2,http://www.crtm.es,0.0,,Europe/Madrid,2.0
8,METRO,12,Metrosur,8,b'manuela malasana',est_4_217,217.0,Plaza   Sol de 9001 SN,40.30903,-3.8640199999999996,B2,http://www.crtm.es,1.0,,Europe/Madrid,2.0
9,METRO,12,Metrosur,9,b'loranca',par_4_218,218.0,Calle de la Alegría 4,40.29681,-3.83768,B2,http://www.crtm.es,0.0,,Europe/Madrid,2.0
9,METRO,12,Metrosur,9,b'loranca',est_4_218,218.0,Calle de la Alegría 4,40.29681,-3.83768,B2,http://www.crtm.es,1.0,,Europe/Madrid,2.0
10,METRO,12,Metrosur,10,b'hospital de fuenlabrada',par_4_219,219.0,Cmno del Molino 3,40.285759999999996,-3.81642,B2,http://www.crtm.es,0.0,,Europe/Madrid,2.0
10,METRO,12,Metrosur,10,b'hospital de fuenlabrada',est_4_219,219.0,Cmno del Molino 3,40.285759999999996,-3.81642,B2,http://www.crtm.es,1.0,,Europe/Madrid,2.0
11,METRO,12,Metrosur,11,b'parque europa',par_4_220,220.0,Calle de Francia 34,40.28518,-3.80632,B2,http://www.crtm.es,0.0,,Europe/Madrid,2.0
11,METRO,12,Metrosur,11,b'parque europa',est_4_220,220.0,Calle de Francia 34,40.28518,-3.80632,B2,http://www.crtm.es,1.0,,Europe/Madrid,2.0
12,METRO,12,Metrosur,12,b'fuenlabrada central',par_4_221,221.0,Calle de la Vía SN,40.28268,-3.79891,B2,http://www.crtm.es,0.0,,Europe/Madrid,2.0
12,METRO,12,Metrosur,12,b'fuenlabrada central',est_4_221,221.0,Calle de la Vía SN,40.28268,-3.79891,B2,http://www.crtm.es,1.0,,Europe/Madrid,2.0
13,METRO,12,Metrosur,13,b'parque de los estados',par_4_222,222.0,Calle de Venezuela 2,40.286840000000005,-3.7869699999999997,B2,http://www.crtm.es,0.0,,Europe/Madrid,2.0
13,METRO,12,Metrosur,13,b'parque de los estados',est_4_222,222.0,Calle de Venezuela 2,40.286840000000005,-3.7869699999999997,B2,http://www.crtm.es,1.0,,Europe/Madrid,2.0
14,METRO,12,Metrosur,14,b'arroyo culebro',par_4_223,223.0,Paseo de Juan José Rosón 1,40.288740000000004,-3.75682,B1,http://www.crtm.es,0.0,,Europe/Madrid,2.0
14,METRO,12,Metrosur,14,b'arroyo culebro',est_4_223,223.0,Paseo de Juan José Rosón 1,40.288740000000004,-3.75682,B1,http://www.crtm.es,1.0,,Europe/Madrid,2.0
15,METRO,12,Metrosur,15,b'conservatorio',par_4_224,224.0,Avda de las Arcas del Agua 5,40.293240000000004,-3.7457599999999998,B1,http://www.crtm.es,0.0,,Europe/Madrid,2.0
15,METRO,12,Metrosur,15,b'conservatorio',est_4_224,224.0,Avda de las Arcas del Agua 5,40.293240000000004,-3.7457599999999998,B1,http://www.crtm.es,1.0,,Europe/Madrid,2.0
16,METRO,12,Metrosur,16,b'alonso de mendoza',par_4_225,225.0,Calle del Greco 6,40.30081,-3.73664,B1,http://www.crtm.es,0.0,,Europe/Madrid,2.0
16,METRO,12,Metrosur,16,b'alonso de mendoza',est_4_225,225.0,Calle del Greco 6,40.30081,-3.73664,B1,http://www.crtm.es,1.0,,Europe/Madrid,2.0
17,METRO,12,Metrosur,17,b'getafe central',par_4_226,226.0,Calle  Ferrocarril 2,40.30993,-3.73403,B1,http://www.crtm.es,0.0,,Europe/Madrid,2.0
17,METRO,12,Metrosur,17,b'getafe central',est_4_226,226.0,Calle  Ferrocarril 2,40.30993,-3.73403,B1,http://www.crtm.es,1.0,,Europe/Madrid,2.0
18,METRO,12,Metrosur,18,b'juan de la cierva',par_4_227,227.0,Avda de España 20,40.3118,-3.72224,B1,http://www.crtm.es,0.0,,Europe/Madrid,2.0
18,METRO,12,Metrosur,18,b'juan de la cierva',est_4_227,227.0,Avda de España 20,40.3118,-3.72224,B1,http://www.crtm.es,1.0,,Europe/Madrid,2.0
19,METRO,12,Metrosur,19,b'el casar',par_4_228,228.0,Avda del Casar 2,40.31862,-3.70985,B1,http://www.crtm.es,0.0,,Europe/Madrid,2.0
19,METRO,12,Metrosur,19,b'el casar',est_4_228,228.0,Avda del Casar 2,40.31862,-3.70985,B1,http://www.crtm.es,1.0,,Europe/Madrid,2.0
20,METRO,12,Metrosur,20,b'los espartales',par_4_229,229.0,Avda   Rigoberta Menchú 3,40.32423,-3.7182,B1,http://www.crtm.es,0.0,,Europe/Madrid,2.0
20,METRO,12,Metrosur,20,b'los espartales',est_4_229,229.0,Avda   Rigoberta Menchú 3,40.32423,-3.7182,B1,http://www.crtm.es,1.0,,Europe/Madrid,2.0
21,METRO,12,Metrosur,21,b'el bercial',par_4_230,230.0,Avda   Comandante José Manuel Ripollés 4,40.32907,-3.7296300000000002,B1,http://www.crtm.es,0.0,,Europe/Madrid,2.0
21,METRO,12,Metrosur,21,b'el bercial',acc_4_230_553,230.0,Avda  Comandante José Manuel Ripollés 4,40.32946,-3.72997,,http://www.crtm.es,2.0,est_4_230,,0.0
21,METRO,12,Metrosur,21,b'el bercial',est_4_230,230.0,Avda   Comandante José Manuel Ripollés 4,40.32907,-3.7296300000000002,B1,http://www.crtm.es,1.0,,Europe/Madrid,2.0
22,METRO,12,Metrosur,22,b'el carrascal',par_4_231,231.0,Avda   Rey Juan Carlos I 85,40.33664,-3.7401800000000005,B1,http://www.crtm.es,0.0,,Europe/Madrid,2.0
22,METRO,12,Metrosur,22,b'el carrascal',est_4_231,231.0,Avda   Rey Juan Carlos I 85,40.33664,-3.7401800000000005,B1,http://www.crtm.es,1.0,,Europe/Madrid,2.0
23,METRO,12,Metrosur,23,b'julian besteiro',par_4_232,232.0,Avda   Rey Juan Carlos I 23 A,40.33475,-3.7526599999999997,B1,http://www.crtm.es,0.0,,Europe/Madrid,2.0
23,METRO,12,Metrosur,23,b'julian besteiro',est_4_232,232.0,Avda   Rey Juan Carlos I 23 A,40.33475,-3.7526599999999997,B1,http://www.crtm.es,1.0,,Europe/Madrid,2.0
24,METRO,12,Metrosur,24,b'casa del reloj',par_4_233,233.0,Avda   Gibraltar 11,40.3266,-3.7594199999999995,B1,http://www.crtm.es,0.0,,Europe/Madrid,2.0
24,METRO,12,Metrosur,24,b'casa del reloj',acc_4_233_561,233.0,Avda  Gibraltar 2,40.32674,-3.7593300000000003,,http://www.crtm.es,2.0,est_4_233,,0.0
24,METRO,12,Metrosur,24,b'casa del reloj',est_4_233,233.0,Avda   Gibraltar 11,40.3266,-3.7594199999999995,B1,http://www.crtm.es,1.0,,Europe/Madrid,2.0
25,METRO,12,Metrosur,25,b'hospital severo ochoa',par_4_234,234.0,Avda   Orellana 3,40.32177,-3.7679699999999996,B1,http://www.crtm.es,0.0,,Europe/Madrid,2.0
25,METRO,12,Metrosur,25,b'hospital severo ochoa',acc_4_234_565,234.0,Avda  Orellana 3,40.32142,-3.7686699999999997,,http://www.crtm.es,2.0,est_4_234,,0.0
25,METRO,12,Metrosur,25,b'hospital severo ochoa',est_4_234,234.0,Avda   Orellana 3,40.32177,-3.7679699999999996,B1,http://www.crtm.es,1.0,,Europe/Madrid,2.0
26,METRO,12,Metrosur,26,b'leganes central',par_4_235,235.0,Calle  Virgen del Camino 1,40.328990000000005,-3.7715400000000003,B1,http://www.crtm.es,0.0,,Europe/Madrid,2.0
26,METRO,12,Metrosur,26,b'leganes central',est_4_235,235.0,Calle  Virgen del Camino 1,40.328990000000005,-3.7715400000000003,B1,http://www.crtm.es,1.0,,Europe/Madrid,2.0
27,METRO,12,Metrosur,27,b'san nicasio',par_4_236,236.0,Avda   Mar Mediterráneo SN,40.33616,-3.77587,B1,http://www.crtm.es,0.0,,Europe/Madrid,2.0
27,METRO,12,Metrosur,27,b'san nicasio',est_4_236,236.0,Avda   Mar Mediterráneo SN,40.33616,-3.77587,B1,http://www.crtm.es,1.0,,Europe/Madrid,2.0
0,METRO,R,Ópera-Príncipe Pío,0,b'opera',par_4_36,36.0,Plaza de Isabel II 9,40.41809,-3.7094199999999997,A,http://www.crtm.es,0.0,,Europe/Madrid,0.0
0,METRO,R,Ópera-Príncipe Pío,0,b'opera',est_4_36,36.0,Plaza de Isabel II 9,40.41809,-3.7094199999999997,A,http://www.crtm.es,1.0,,Europe/Madrid,0.0
0,METRO,R,Ópera-Príncipe Pío,0,b'opera',par_4_89,89.0,Plaza de Isabel II 9,40.41809,-3.70935,A,http://www.crtm.es,0.0,est_4_36,,0.0
0,METRO,R,Ópera-Príncipe Pío,0,b'opera',par_4_237,237.0,Plaza de Isabel II 9,40.41809,-3.70928,A,http://www.crtm.es,0.0,est_4_36,,0.0
1,METRO,R,Ópera-Príncipe Pío,1,b'principe pio',par_4_127,127.0,Paseo de la Florida 2,40.42107,-3.7203199999999996,A,http://www.crtm.es,0.0,est_90_18,,1.0
1,METRO,R,Ópera-Príncipe Pío,1,b'principe pio',par_4_198,198.0,Paseo de la Florida 2,40.42103,-3.72033,A,http://www.crtm.es,0.0,est_90_18,,1.0
1,METRO,R,Ópera-Príncipe Pío,1,b'principe pio',par_4_238,238.0,Paseo de la Florida 2,40.42099,-3.72033,A,http://www.crtm.es,0.0,est_90_18,,1.0
0,ML,1,Pinar de Chamartín-Las Tablas,0,b'pinar de chamartin',par_10_1,1.0,,40.480140000000006,-3.66684,A,http://www.crtm.es,0.0,,Europe/Madrid,2.0
0,ML,1,Pinar de Chamartín-Las Tablas,0,b'pinar de chamartin',est_10_1,1.0,,40.480140000000006,-3.66684,A,http://www.crtm.es,1.0,,Europe/Madrid,2.0
1,ML,1,Pinar de Chamartín-Las Tablas,1,b'fuente de la mora',par_10_2,2.0,,40.48482,-3.66325,A,http://www.crtm.es,0.0,,Europe/Madrid,2.0
1,ML,1,Pinar de Chamartín-Las Tablas,1,b'fuente de la mora',est_10_2,2.0,,40.48482,-3.66325,A,http://www.crtm.es,1.0,,Europe/Madrid,2.0
2,ML,1,Pinar de Chamartín-Las Tablas,2,b'virgen del cortijo',par_10_3,3.0,,40.48734,-3.6609800000000003,A,http://www.crtm.es,0.0,,Europe/Madrid,2.0
2,ML,1,Pinar de Chamartín-Las Tablas,2,b'virgen del cortijo',est_10_3,3.0,,40.48734,-3.6609800000000003,A,http://www.crtm.es,1.0,,Europe/Madrid,2.0
3,ML,1,Pinar de Chamartín-Las Tablas,3,b'antonio saura',par_10_4,4.0,,40.485459999999996,-3.6535300000000004,A,http://www.crtm.es,0.0,,Europe/Madrid,2.0
3,ML,1,Pinar de Chamartín-Las Tablas,3,b'antonio saura',est_10_4,4.0,,40.485459999999996,-3.6535300000000004,A,http://www.crtm.es,1.0,,Europe/Madrid,2.0
4,ML,1,Pinar de Chamartín-Las Tablas,4,b'alvarez de villaamil',par_10_5,5.0,,40.48905,-3.65136,A,http://www.crtm.es,0.0,,Europe/Madrid,2.0
4,ML,1,Pinar de Chamartín-Las Tablas,4,b'alvarez de villaamil',est_10_5,5.0,,40.48905,-3.65136,A,http://www.crtm.es,1.0,,Europe/Madrid,2.0
5,ML,1,Pinar de Chamartín-Las Tablas,5,b'blasco ibanez',par_10_6,6.0,,40.49368,-3.65584,A,http://www.crtm.es,0.0,,Europe/Madrid,2.0
5,ML,1,Pinar de Chamartín-Las Tablas,5,b'blasco ibanez',est_10_6,6.0,,40.49368,-3.65584,A,http://www.crtm.es,1.0,,Europe/Madrid,2.0
6,ML,1,Pinar de Chamartín-Las Tablas,6,b'maria tudor',par_10_7,7.0,,40.497170000000004,-3.65889,A,http://www.crtm.es,0.0,,Europe/Madrid,2.0
6,ML,1,Pinar de Chamartín-Las Tablas,6,b'maria tudor',acc_10_7_729,7.0,Calle de María Tudor 15,40.497009999999996,-3.65907,,http://www.crtm.es,2.0,est_10_7,,0.0
6,ML,1,Pinar de Chamartín-Las Tablas,6,b'maria tudor',est_10_7,7.0,,40.497170000000004,-3.65889,A,http://www.crtm.es,1.0,,Europe/Madrid,2.0
7,ML,1,Pinar de Chamartín-Las Tablas,7,b'palas de rey',par_10_8,8.0,,40.50544,-3.6650699999999996,A,http://www.crtm.es,0.0,,Europe/Madrid,2.0
7,ML,1,Pinar de Chamartín-Las Tablas,7,b'palas de rey',acc_10_8_734,8.0,Calle de Palas de Rey SN,40.50546,-3.6650099999999997,,http://www.crtm.es,2.0,est_10_8,,0.0
7,ML,1,Pinar de Chamartín-Las Tablas,7,b'palas de rey',acc_10_9_735,9.0,Calle de Palas de Rey SN,40.50808,-3.6688400000000003,,http://www.crtm.es,2.0,est_10_9,,0.0
7,ML,1,Pinar de Chamartín-Las Tablas,7,b'palas de rey',est_10_8,8.0,,40.50544,-3.6650699999999996,A,http://www.crtm.es,1.0,,Europe/Madrid,2.0
8,ML,1,Pinar de Chamartín-Las Tablas,8,b'las tablas',par_10_9,9.0,,40.50824,-3.66932,A,http://www.crtm.es,0.0,,Europe/Madrid,2.0
8,ML,1,Pinar de Chamartín-Las Tablas,8,b'las tablas',est_10_9,9.0,,40.50824,-3.66932,A,http://www.crtm.es,1.0,,Europe/Madrid,2.0
0,ML,2,Colonia Jardín-Estación de Aravaca,0,b'colonia jardin',par_10_10,10.0,,40.39698,-3.7745599999999997,A,http://www.crtm.es,0.0,,Europe/Madrid,2.0
0,ML,2,Colonia Jardín-Estación de Aravaca,0,b'colonia jardin',est_10_10,10.0,,40.39698,-3.7745599999999997,A,http://www.crtm.es,1.0,,Europe/Madrid,2.0
0,ML,2,Colonia Jardín-Estación de Aravaca,0,b'colonia jardin',par_10_24,24.0,,40.39698,-3.77451,A,http://www.crtm.es,0.0,est_10_10,,2.0
1,ML,2,Colonia Jardín-Estación de Aravaca,1,b'prado de la vega',par_10_11,11.0,,40.4023,-3.7812099999999997,B1,http://www.crtm.es,0.0,,Europe/Madrid,2.0
2,ML,2,Colonia Jardín-Estación de Aravaca,2,b'colonia de los angeles',par_10_12,12.0,,40.40721,-3.7844,B1,http://www.crtm.es,0.0,,Europe/Madrid,2.0
3,ML,2,Colonia Jardín-Estación de Aravaca,3,b'prado del rey',par_10_13,13.0,,40.410470000000004,-3.7874800000000004,B1,http://www.crtm.es,0.0,,Europe/Madrid,2.0
4,ML,2,Colonia Jardín-Estación de Aravaca,4,b'somosaguas sur',par_10_14,14.0,,40.41536,-3.7925199999999997,B1,http://www.crtm.es,0.0,,Europe/Madrid,2.0
4,ML,2,Colonia Jardín-Estación de Aravaca,4,b'somosaguas sur',acc_10_14_808,14.0,Calle  Veritas 1,40.41499,-3.79262,,http://www.crtm.es,2.0,est_10_14,,0.0
4,ML,2,Colonia Jardín-Estación de Aravaca,4,b'somosaguas sur',est_10_14,14.0,,40.41536,-3.7925199999999997,B1,http://www.crtm.es,1.0,,Europe/Madrid,2.0
5,ML,2,Colonia Jardín-Estación de Aravaca,5,b'somosaguas centro',par_10_15,15.0,,40.41937,-3.79874,B1,http://www.crtm.es,0.0,,Europe/Madrid,2.0
6,ML,2,Colonia Jardín-Estación de Aravaca,6,b'pozuelo oeste',par_10_16,16.0,,40.42307,-3.80447,B1,http://www.crtm.es,0.0,,Europe/Madrid,2.0
7,ML,2,Colonia Jardín-Estación de Aravaca,7,b'belgica',par_10_18,18.0,,40.43058,-3.80755,B1,http://www.crtm.es,0.0,,Europe/Madrid,2.0
8,ML,2,Colonia Jardín-Estación de Aravaca,8,b'dos castillas',par_10_19,19.0,,40.43253,-3.8016199999999998,B1,http://www.crtm.es,0.0,,Europe/Madrid,2.0
9,ML,2,Colonia Jardín-Estación de Aravaca,9,b'campus de somosaguas',par_10_20,20.0,,40.43338,-3.79525,B1,http://www.crtm.es,0.0,,Europe/Madrid,2.0
10,ML,2,Colonia Jardín-Estación de Aravaca,10,b'avenida de europa',par_10_21,21.0,,40.43931,-3.79305,B1,http://www.crtm.es,0.0,,Europe/Madrid,2.0
10,ML,2,Colonia Jardín-Estación de Aravaca,10,b'avenida de europa',acc_10_21_810,21.0,Avda  Comunidad de Madrid 3,40.43914,-3.7930900000000003,,http://www.crtm.es,2.0,est_10_21,,0.0
10,ML,2,Colonia Jardín-Estación de Aravaca,10,b'avenida de europa',est_10_21,21.0,,40.43931,-3.79305,B1,http://www.crtm.es,1.0,,Europe/Madrid,2.0
11,ML,2,Colonia Jardín-Estación de Aravaca,11,b'berna',par_10_22,22.0,,40.44487,-3.7912,B1,http://www.crtm.es,0.0,,Europe/Madrid,2.0
11,ML,2,Colonia Jardín-Estación de Aravaca,11,b'berna',acc_10_22_812,22.0,Calle  Plutón 1,40.444759999999995,-3.7911599999999996,,http://www.crtm.es,2.0,est_10_22,,0.0
11,ML,2,Colonia Jardín-Estación de Aravaca,11,b'berna',est_10_22,22.0,,40.44487,-3.7912,B1,http://www.crtm.es,1.0,,Europe/Madrid,2.0
12,ML,2,Colonia Jardín-Estación de Aravaca,12,b'estacion de aravaca',par_10_23,23.0,,40.44833,-3.78591,A,http://www.crtm.es,0.0,,Europe/Madrid,2.0
0,ML,3,Colonia Jardín-Puerta de Boadilla,0,b'colonia jardin',par_10_10,10.0,,40.39698,-3.7745599999999997,A,http://www.crtm.es,0.0,,Europe/Madrid,2.0
0,ML,3,Colonia Jardín-Puerta de Boadilla,0,b'colonia jardin',est_10_10,10.0,,40.39698,-3.7745599999999997,A,http://www.crtm.es,1.0,,Europe/Madrid,2.0
0,ML,3,Colonia Jardín-Puerta de Boadilla,0,b'colonia jardin',par_10_24,24.0,,40.39698,-3.77451,A,http://www.crtm.es,0.0,est_10_10,,2.0
1,ML,3,Colonia Jardín-Puerta de Boadilla,1,b'ciudad de la imagen',par_10_25,25.0,,40.397090000000006,-3.78399,B1,http://www.crtm.es,0.0,,Europe/Madrid,2.0
2,ML,3,Colonia Jardín-Puerta de Boadilla,2,b'jose isbert',par_10_26,26.0,,40.39525,-3.7899300000000005,B1,http://www.crtm.es,0.0,,Europe/Madrid,2.0
3,ML,3,Colonia Jardín-Puerta de Boadilla,3,b'ciudad del cine',par_10_27,27.0,,40.39455,-3.7955699999999997,B1,http://www.crtm.es,0.0,,Europe/Madrid,2.0
4,ML,3,Colonia Jardín-Puerta de Boadilla,4,b'cocheras',par_10_39,39.0,,40.396879999999996,-3.80386,B1,http://www.crtm.es,0.0,,Europe/Madrid,2.0
5,ML,3,Colonia Jardín-Puerta de Boadilla,5,b'retamares',par_10_28,28.0,,40.398720000000004,-3.81675,B1,http://www.crtm.es,0.0,,Europe/Madrid,2.0
6,ML,3,Colonia Jardín-Puerta de Boadilla,6,b'monteprincipe',par_10_29,29.0,,40.39792,-3.8358,B1,http://www.crtm.es,0.0,,Europe/Madrid,2.0
6,ML,3,Colonia Jardín-Puerta de Boadilla,6,b'monteprincipe',acc_10_29_739,29.0,Avda del Montepríncipe 1,40.397870000000005,-3.8358199999999996,,http://www.crtm.es,2.0,est_10_29,,0.0
6,ML,3,Colonia Jardín-Puerta de Boadilla,6,b'monteprincipe',est_10_29,29.0,,40.39792,-3.8358,B1,http://www.crtm.es,1.0,,Europe/Madrid,2.0
7,ML,3,Colonia Jardín-Puerta de Boadilla,7,b'ventorro del cano',par_10_30,30.0,,40.3942,-3.83811,B1,http://www.crtm.es,0.0,,Europe/Madrid,2.0
8,ML,3,Colonia Jardín-Puerta de Boadilla,8,b'prado del espino',par_10_31,31.0,,40.39502,-3.84774,B2,http://www.crtm.es,0.0,,Europe/Madrid,2.0
9,ML,3,Colonia Jardín-Puerta de Boadilla,9,b'cantabria',par_10_32,32.0,,40.39529,-3.86439,B2,http://www.crtm.es,0.0,,Europe/Madrid,2.0
10,ML,3,Colonia Jardín-Puerta de Boadilla,10,b'ferial de boadilla',par_10_33,33.0,,40.401959999999995,-3.8793800000000003,B2,http://www.crtm.es,0.0,,Europe/Madrid,2.0
11,ML,3,Colonia Jardín-Puerta de Boadilla,11,b'boadilla centro',par_10_34,34.0,,40.407140000000005,-3.88004,B2,http://www.crtm.es,0.0,,Europe/Madrid,2.0
12,ML,3,Colonia Jardín-Puerta de Boadilla,12,b'nuevo mundo',par_10_35,35.0,,40.405640000000005,-3.88576,B2,http://www.crtm.es,0.0,,Europe/Madrid,2.0
13,ML,3,Colonia Jardín-Puerta de Boadilla,13,b'siglo xxi',par_10_36,36.0,,40.40513,-3.8926300000000005,B2,http://www.crtm.es,0.0,,Europe/Madrid,2.0
14,ML,3,Colonia Jardín-Puerta de Boadilla,14,b'infante don luis',par_10_37,37.0,,40.40595,-3.89741,B2,http://www.crtm.es,0.0,,Europe/Madrid,2.0
15,ML,3,Colonia Jardín-Puerta de Boadilla,15,b'puerta de boadilla',par_10_38,38.0,,40.40777,-3.9037800000000002,B2,http://www.crtm.es,0.0,,Europe/Madrid,2.0
0,ML,4,Tranvia de Parla (Línea Circular),0,b'estrella polar norte (ida)',,,,,,,,,,,
1,ML,4,Tranvia de Parla (Línea Circular),1,b'estrella polar sur (vuelta)',,,,,,,,,,,
2,ML,4,Tranvia de Parla (Línea Circular),2,b'jaime i norte (ida)',,,,,,,,,,,
3,ML,4,Tranvia de Parla (Línea Circular),3,b'jaime i sur (vuelta)',,,,,,,,,,,
4,ML,4,Tranvia de Parla (Línea Circular),4,b'poligono industrial ciudad de parla',par_10_68,68.0,,40.23867,-3.75045,B2,http://www.crtm.es,0.0,,Europe/Madrid,2.0
5,ML,4,Tranvia de Parla (Línea Circular),5,b'plaza de toros',par_10_50,50.0,,40.2441,-3.75756,B2,http://www.crtm.es,0.0,,Europe/Madrid,2.0
6,ML,4,Tranvia de Parla (Línea Circular),6,b'julio romero de torres',par_10_51,51.0,,40.24535,-3.76232,B2,http://www.crtm.es,0.0,,Europe/Madrid,2.0
7,ML,4,Tranvia de Parla (Línea Circular),7,b'la ballena',par_10_52,52.0,,40.24599,-3.76635,B2,http://www.crtm.es,0.0,,Europe/Madrid,2.0
8,ML,4,Tranvia de Parla (Línea Circular),8,b'parla centro - bulevar norte',par_10_53,53.0,,40.240790000000004,-3.76954,B2,http://www.crtm.es,0.0,,Europe/Madrid,2.0
9,ML,4,Tranvia de Parla (Línea Circular),9,b'iglesia centro',par_10_54,54.0,,40.23771,-3.7705900000000003,B2,http://www.crtm.es,0.0,,Europe/Madrid,2.0
10,ML,4,Tranvia de Parla (Línea Circular),10,b'bulevar sur',par_10_55,55.0,,40.23473,-3.77236,B2,http://www.crtm.es,0.0,,Europe/Madrid,2.0
11,ML,4,Tranvia de Parla (Línea Circular),11,b'reyes catolicos',par_10_56,56.0,,40.23141,-3.77,B2,http://www.crtm.es,0.0,,Europe/Madrid,2.0
12,ML,4,Tranvia de Parla (Línea Circular),12,b'isabel ii',par_10_57,57.0,,40.23114,-3.76508,B2,http://www.crtm.es,0.0,,Europe/Madrid,2.0
13,ML,4,Tranvia de Parla (Línea Circular),13,b'parque parla este',par_10_58,58.0,,40.228159999999995,-3.7614699999999996,B2,http://www.crtm.es,0.0,,Europe/Madrid,2.0
14,ML,4,Tranvia de Parla (Línea Circular),14,b'avenida sistema solar',par_10_59,59.0,,40.22343,-3.7607199999999996,B2,http://www.crtm.es,0.0,,Europe/Madrid,2.0
15,ML,4,Tranvia de Parla (Línea Circular),15,b'tierra norte (ida)',,,,,,,,,,,
16,ML,4,Tranvia de Parla (Línea Circular),16,b'tierra sur (vuelta)',,,,,,,,,,,
17,ML,4,Tranvia de Parla (Línea Circular),17,b'venus norte (ida)',,,,,,,,,,,
18,ML,4,Tranvia de Parla (Línea Circular),18,b'venus sur (vuelta)',,,,,,,,,,,
0,CR,C-1,Príncipe Pío-Atocha-Recoletos-Chamartín-Aeropuerto T4,0,b'principe pio',par_5_61,61.0,,40.4210790188043,-3.7201723106450295,A,http://www.crtm.es,0.0,est_90_18,,0.0
1,CR,C-1,Príncipe Pío-Atocha-Recoletos-Chamartín-Aeropuerto T4,1,b'piramides',par_5_57,57.0,,40.4026028948529,-3.71124315951466,A,http://www.crtm.es,0.0,,Europe/Madrid,1.0
2,CR,C-1,Príncipe Pío-Atocha-Recoletos-Chamartín-Aeropuerto T4,2,b'delicias',par_5_25,25.0,,40.400382320912,-3.6926718217550896,A,http://www.crtm.es,0.0,,Europe/Madrid,1.0
3,CR,C-1,Príncipe Pío-Atocha-Recoletos-Chamartín-Aeropuerto T4,3,b'mendez alvaro',par_5_46,46.0,,40.3953883033481,-3.6779860250306404,A,http://www.crtm.es,0.0,est_90_13,,1.0
4,CR,C-1,Príncipe Pío-Atocha-Recoletos-Chamartín-Aeropuerto T4,4,b'atocha',par_5_11,11.0,,40.4066011651398,-3.6892118408395898,A,http://www.crtm.es,0.0,est_90_54,,2.0
5,CR,C-1,Príncipe Pío-Atocha-Recoletos-Chamartín-Aeropuerto T4,5,b'recoletos',par_5_65,65.0,,40.423420623761295,-3.6907626799938704,A,http://www.crtm.es,0.0,,Europe/Madrid,0.0
6,CR,C-1,Príncipe Pío-Atocha-Recoletos-Chamartín-Aeropuerto T4,6,b'nuevos ministerios',par_5_51,51.0,,40.4466277031815,-3.6922501798623597,A,http://www.crtm.es,0.0,est_90_71,,2.0
6,CR,C-1,Príncipe Pío-Atocha-Recoletos-Chamartín-Aeropuerto T4,6,b'nuevos ministerios',est_90_71,71.0,Calle de Raimundo Fernández Villaverde 67,40.44662,-3.69246,A,http://www.crtm.es,1.0,,Europe/Madrid,0.0
7,CR,C-1,Príncipe Pío-Atocha-Recoletos-Chamartín-Aeropuerto T4,7,b'chamartin',par_5_18,18.0,,40.4721094623497,-3.68237859937536,A,http://www.crtm.es,0.0,est_90_25,,2.0
7,CR,C-1,Príncipe Pío-Atocha-Recoletos-Chamartín-Aeropuerto T4,7,b'chamartin',est_90_25,25.0,Calle de Agustín de Foxá 40,40.4721,-3.68269,A,http://www.crtm.es,1.0,,Europe/Madrid,0.0
8,CR,C-1,Príncipe Pío-Atocha-Recoletos-Chamartín-Aeropuerto T4,8,b'fuente de la mora',par_5_133,133.0,,40.4847551076476,-3.66273198940419,A,http://www.crtm.es,0.0,,Europe/Madrid,2.0
9,CR,C-1,Príncipe Pío-Atocha-Recoletos-Chamartín-Aeropuerto T4,9,b'valdebebas',par_5_144,144.0,,40.4823091642411,-3.61634057588727,A,http://www.crtm.es,0.0,,Europe/Madrid,2.0
10,CR,C-1,Príncipe Pío-Atocha-Recoletos-Chamartín-Aeropuerto T4,10,b'aeropuerto t4',par_5_142,142.0,,40.4917812474987,-3.59324027187479,A,http://www.crtm.es,0.0,est_90_33,,2.0
10,CR,C-1,Príncipe Pío-Atocha-Recoletos-Chamartín-Aeropuerto T4,10,b'aeropuerto t4',est_90_33,33.0,Ctra de Alcobendas a Barajas SN,40.49176,-3.5935599999999996,A,http://www.crtm.es,1.0,,Europe/Madrid,0.0
0,CR,C-2,Guadalajara-Alcalá de Henares-Atocha-Chamartín,0,b'guadalajara',par_5_38,38.0,,40.6440936102746,-3.18230377067774,C2,http://www.crtm.es,0.0,,Europe/Madrid,0.0
1,CR,C-2,Guadalajara-Alcalá de Henares-Atocha-Chamartín,1,b'azuqueca',par_5_12,12.0,,40.5610431126363,-3.26537808007204,C1,http://www.crtm.es,0.0,,Europe/Madrid,1.0
2,CR,C-2,Guadalajara-Alcalá de Henares-Atocha-Chamartín,2,b'meco',par_5_45,45.0,,40.534629296321,-3.29857120296861,C1,http://www.crtm.es,0.0,,Europe/Madrid,0.0
3,CR,C-2,Guadalajara-Alcalá de Henares-Atocha-Chamartín,3,b'alcala de henares universidad',par_5_3,3.0,,40.5053487667517,-3.33532393016683,B3,http://www.crtm.es,0.0,,Europe/Madrid,0.0
4,CR,C-2,Guadalajara-Alcalá de Henares-Atocha-Chamartín,4,b'alcala de henares',par_5_2,2.0,,40.489038872521206,-3.36625200624717,B3,http://www.crtm.es,0.0,,Europe/Madrid,0.0
5,CR,C-2,Guadalajara-Alcalá de Henares-Atocha-Chamartín,5,b'la garena',,,,,,,,,,,
6,CR,C-2,Guadalajara-Alcalá de Henares-Atocha-Chamartín,6,b'soto del henares',par_5_143,143.0,,40.463542902172996,-3.44124824645267,B2,http://www.crtm.es,0.0,,Europe/Madrid,0.0
7,CR,C-2,Guadalajara-Alcalá de Henares-Atocha-Chamartín,7,b'torrejon de ardoz',par_5_81,81.0,,40.454614888402,-3.4797310604898,B2,http://www.crtm.es,0.0,,Europe/Madrid,0.0
8,CR,C-2,Guadalajara-Alcalá de Henares-Atocha-Chamartín,8,b'san fernando',par_5_71,71.0,,40.4426754342948,-3.5337569967628504,B1,http://www.crtm.es,0.0,,Europe/Madrid,0.0
9,CR,C-2,Guadalajara-Alcalá de Henares-Atocha-Chamartín,9,b'coslada',par_5_22,22.0,,40.4237445026866,-3.56105002582089,B1,http://www.crtm.es,0.0,,Europe/Madrid,1.0
10,CR,C-2,Guadalajara-Alcalá de Henares-Atocha-Chamartín,10,b'vicalvaro',par_5_90,90.0,,40.40132727162921,-3.59583931493827,A,http://www.crtm.es,0.0,,Europe/Madrid,0.0
11,CR,C-2,Guadalajara-Alcalá de Henares-Atocha-Chamartín,11,b'santa eugenia',par_5_75,75.0,,40.386997622806604,-3.6089673976787697,A,http://www.crtm.es,0.0,,Europe/Madrid,0.0
12,CR,C-2,Guadalajara-Alcalá de Henares-Atocha-Chamartín,12,b'vallecas',par_5_87,87.0,,40.3822212818191,-3.6244633059562896,A,http://www.crtm.es,0.0,,Europe/Madrid,1.0
13,CR,C-2,Guadalajara-Alcalá de Henares-Atocha-Chamartín,13,b'el pozo',,,,,,,,,,,
14,CR,C-2,Guadalajara-Alcalá de Henares-Atocha-Chamartín,14,b'asamblea de madrid-entrevias',par_5_10,10.0,,40.381681158248604,-3.66791743399165,A,http://www.crtm.es,0.0,,Europe/Madrid,0.0
15,CR,C-2,Guadalajara-Alcalá de Henares-Atocha-Chamartín,15,b'atocha',par_5_11,11.0,,40.4066011651398,-3.6892118408395898,A,http://www.crtm.es,0.0,est_90_54,,2.0
16,CR,C-2,Guadalajara-Alcalá de Henares-Atocha-Chamartín,16,b'recoletos',par_5_65,65.0,,40.423420623761295,-3.6907626799938704,A,http://www.crtm.es,0.0,,Europe/Madrid,0.0
17,CR,C-2,Guadalajara-Alcalá de Henares-Atocha-Chamartín,17,b'nuevos ministerios',par_5_51,51.0,,40.4466277031815,-3.6922501798623597,A,http://www.crtm.es,0.0,est_90_71,,2.0
17,CR,C-2,Guadalajara-Alcalá de Henares-Atocha-Chamartín,17,b'nuevos ministerios',est_90_71,71.0,Calle de Raimundo Fernández Villaverde 67,40.44662,-3.69246,A,http://www.crtm.es,1.0,,Europe/Madrid,0.0
18,CR,C-2,Guadalajara-Alcalá de Henares-Atocha-Chamartín,18,b'chamartin',par_5_18,18.0,,40.4721094623497,-3.68237859937536,A,http://www.crtm.es,0.0,est_90_25,,2.0
18,CR,C-2,Guadalajara-Alcalá de Henares-Atocha-Chamartín,18,b'chamartin',est_90_25,25.0,Calle de Agustín de Foxá 40,40.4721,-3.68269,A,http://www.crtm.es,1.0,,Europe/Madrid,0.0
0,CR,C-3,Aranjuez-Atocha-Sol-Chamartín,0,b'aranjuez',par_5_8,8.0,,40.0348477748241,-3.61821249344168,C1,http://www.crtm.es,0.0,,Europe/Madrid,0.0
1,CR,C-3,Aranjuez-Atocha-Sol-Chamartín,1,b'ciempozuelos',par_5_19,19.0,,40.1590780625469,-3.60993229369721,B3,http://www.crtm.es,0.0,,Europe/Madrid,0.0
2,CR,C-3,Aranjuez-Atocha-Sol-Chamartín,2,b'valdemoro',par_5_86,86.0,,40.1960570665724,-3.66471800184914,B3,http://www.crtm.es,0.0,,Europe/Madrid,2.0
3,CR,C-3,Aranjuez-Atocha-Sol-Chamartín,3,b'pinto',par_5_56,56.0,,40.2428012031304,-3.70364259838166,B2,http://www.crtm.es,0.0,,Europe/Madrid,0.0
4,CR,C-3,Aranjuez-Atocha-Sol-Chamartín,4,b'getafe industrial',par_5_35,35.0,,40.305489829189895,-3.7075993552501,B1,http://www.crtm.es,0.0,,Europe/Madrid,0.0
5,CR,C-3,Aranjuez-Atocha-Sol-Chamartín,5,b'el casar',,,,,,,,,,,
6,CR,C-3,Aranjuez-Atocha-Sol-Chamartín,6,b'san cristobal industrial',par_5_70,70.0,,40.3319230119497,-3.69862254904323,A,http://www.crtm.es,0.0,,Europe/Madrid,1.0
7,CR,C-3,Aranjuez-Atocha-Sol-Chamartín,7,b'san cristobal de los angeles',par_5_69,69.0,,40.342372290069605,-3.6837539734577502,A,http://www.crtm.es,0.0,,Europe/Madrid,2.0
8,CR,C-3,Aranjuez-Atocha-Sol-Chamartín,8,b'villaverde bajo',par_5_93,93.0,,40.3526507971254,-3.6838931087357905,A,http://www.crtm.es,0.0,,Europe/Madrid,2.0
9,CR,C-3,Aranjuez-Atocha-Sol-Chamartín,9,b'atocha',par_5_11,11.0,,40.4066011651398,-3.6892118408395898,A,http://www.crtm.es,0.0,est_90_54,,2.0
10,CR,C-3,Aranjuez-Atocha-Sol-Chamartín,10,b'sol',par_5_122,122.0,,40.4168514100817,-3.7030009543679907,A,http://www.crtm.es,0.0,est_90_58,,0.0
11,CR,C-3,Aranjuez-Atocha-Sol-Chamartín,11,b'nuevos ministerios',par_5_51,51.0,,40.4466277031815,-3.6922501798623597,A,http://www.crtm.es,0.0,est_90_71,,2.0
11,CR,C-3,Aranjuez-Atocha-Sol-Chamartín,11,b'nuevos ministerios',est_90_71,71.0,Calle de Raimundo Fernández Villaverde 67,40.44662,-3.69246,A,http://www.crtm.es,1.0,,Europe/Madrid,0.0
12,CR,C-3,Aranjuez-Atocha-Sol-Chamartín,12,b'chamartin',par_5_18,18.0,,40.4721094623497,-3.68237859937536,A,http://www.crtm.es,0.0,est_90_25,,2.0
12,CR,C-3,Aranjuez-Atocha-Sol-Chamartín,12,b'chamartin',est_90_25,25.0,Calle de Agustín de Foxá 40,40.4721,-3.68269,A,http://www.crtm.es,1.0,,Europe/Madrid,0.0
0,CR,C-3a,Aranjuez-Atocha-Sol-Chamartín-El Escorial,0,b'aranjuez',par_5_8,8.0,,40.0348477748241,-3.61821249344168,C1,http://www.crtm.es,0.0,,Europe/Madrid,0.0
1,CR,C-3a,Aranjuez-Atocha-Sol-Chamartín-El Escorial,1,b'ciempozuelos',par_5_19,19.0,,40.1590780625469,-3.60993229369721,B3,http://www.crtm.es,0.0,,Europe/Madrid,0.0
2,CR,C-3a,Aranjuez-Atocha-Sol-Chamartín-El Escorial,2,b'valdemoro',par_5_86,86.0,,40.1960570665724,-3.66471800184914,B3,http://www.crtm.es,0.0,,Europe/Madrid,2.0
3,CR,C-3a,Aranjuez-Atocha-Sol-Chamartín-El Escorial,3,b'pinto',par_5_56,56.0,,40.2428012031304,-3.70364259838166,B2,http://www.crtm.es,0.0,,Europe/Madrid,0.0
4,CR,C-3a,Aranjuez-Atocha-Sol-Chamartín-El Escorial,4,b'getafe industrial',par_5_35,35.0,,40.305489829189895,-3.7075993552501,B1,http://www.crtm.es,0.0,,Europe/Madrid,0.0
5,CR,C-3a,Aranjuez-Atocha-Sol-Chamartín-El Escorial,5,b'el casar',,,,,,,,,,,
6,CR,C-3a,Aranjuez-Atocha-Sol-Chamartín-El Escorial,6,b'san cristobal industrial',par_5_70,70.0,,40.3319230119497,-3.69862254904323,A,http://www.crtm.es,0.0,,Europe/Madrid,1.0
7,CR,C-3a,Aranjuez-Atocha-Sol-Chamartín-El Escorial,7,b'san cristobal de los angeles',par_5_69,69.0,,40.342372290069605,-3.6837539734577502,A,http://www.crtm.es,0.0,,Europe/Madrid,2.0
8,CR,C-3a,Aranjuez-Atocha-Sol-Chamartín-El Escorial,8,b'villaverde bajo',par_5_93,93.0,,40.3526507971254,-3.6838931087357905,A,http://www.crtm.es,0.0,,Europe/Madrid,2.0
9,CR,C-3a,Aranjuez-Atocha-Sol-Chamartín-El Escorial,9,b'atocha',par_5_11,11.0,,40.4066011651398,-3.6892118408395898,A,http://www.crtm.es,0.0,est_90_54,,2.0
10,CR,C-3a,Aranjuez-Atocha-Sol-Chamartín-El Escorial,10,b'sol',par_5_122,122.0,,40.4168514100817,-3.7030009543679907,A,http://www.crtm.es,0.0,est_90_58,,0.0
11,CR,C-3a,Aranjuez-Atocha-Sol-Chamartín-El Escorial,11,b'nuevos ministerios',par_5_51,51.0,,40.4466277031815,-3.6922501798623597,A,http://www.crtm.es,0.0,est_90_71,,2.0
11,CR,C-3a,Aranjuez-Atocha-Sol-Chamartín-El Escorial,11,b'nuevos ministerios',est_90_71,71.0,Calle de Raimundo Fernández Villaverde 67,40.44662,-3.69246,A,http://www.crtm.es,1.0,,Europe/Madrid,0.0
12,CR,C-3a,Aranjuez-Atocha-Sol-Chamartín-El Escorial,12,b'chamartin',par_5_18,18.0,,40.4721094623497,-3.68237859937536,A,http://www.crtm.es,0.0,est_90_25,,2.0
12,CR,C-3a,Aranjuez-Atocha-Sol-Chamartín-El Escorial,12,b'chamartin',est_90_25,25.0,Calle de Agustín de Foxá 40,40.4721,-3.68269,A,http://www.crtm.es,1.0,,Europe/Madrid,0.0
13,CR,C-3a,Aranjuez-Atocha-Sol-Chamartín-El Escorial,13,b'ramon y cajal',par_5_64,64.0,,40.4882522939954,-3.6946481959126496,A,http://www.crtm.es,0.0,,Europe/Madrid,0.0
14,CR,C-3a,Aranjuez-Atocha-Sol-Chamartín-El Escorial,14,b'mirasierra-paco de lucia',par_5_145,145.0,,40.4997,-3.7091,A,http://www.crtm.es,0.0,,Europe/Madrid,0.0
15,CR,C-3a,Aranjuez-Atocha-Sol-Chamartín-El Escorial,15,b'pitis',par_5_58,58.0,,40.495115042597604,-3.72575435236588,A,http://www.crtm.es,0.0,,Europe/Madrid,1.0
16,CR,C-3a,Aranjuez-Atocha-Sol-Chamartín-El Escorial,16,b'pinar de las rozas',par_5_55,55.0,,40.5223060941516,-3.8820657658893998,B2,http://www.crtm.es,0.0,,Europe/Madrid,0.0
17,CR,C-3a,Aranjuez-Atocha-Sol-Chamartín-El Escorial,17,b'las matas',,,,,,,,,,,
18,CR,C-3a,Aranjuez-Atocha-Sol-Chamartín-El Escorial,18,b'torrelodones',par_5_82,82.0,,40.574513990894,-3.95644911190209,B3,http://www.crtm.es,0.0,,Europe/Madrid,1.0
19,CR,C-3a,Aranjuez-Atocha-Sol-Chamartín-El Escorial,19,b'galapagar - la navata',,,,,,,,,,,
20,CR,C-3a,Aranjuez-Atocha-Sol-Chamartín-El Escorial,20,b'villalba',par_5_91,91.0,,40.6263702008332,-4.00800585940991,B3,http://www.crtm.es,0.0,,Europe/Madrid,1.0
21,CR,C-3a,Aranjuez-Atocha-Sol-Chamartín-El Escorial,21,b'san yago',par_5_74,74.0,,40.6178702391272,-4.03101363862753,C1,http://www.crtm.es,0.0,,Europe/Madrid,0.0
22,CR,C-3a,Aranjuez-Atocha-Sol-Chamartín-El Escorial,22,b'las zorreras',,,,,,,,,,,
23,CR,C-3a,Aranjuez-Atocha-Sol-Chamartín-El Escorial,23,b'el escorial',,,,,,,,,,,
24,CR,C-3a,Aranjuez-Atocha-Sol-Chamartín-El Escorial,24,b'zarzalejo',par_5_94,94.0,,40.538728000000006,-4.15817,C2,http://www.crtm.es,0.0,,Europe/Madrid,0.0
25,CR,C-3a,Aranjuez-Atocha-Sol-Chamartín-El Escorial,25,b'robledo de chavela',par_5_67,67.0,,40.52078,-4.24671,C2,http://www.crtm.es,0.0,,Europe/Madrid,0.0
26,CR,C-3a,Aranjuez-Atocha-Sol-Chamartín-El Escorial,26,b'santa maria de la alameda',par_5_76,76.0,,40.56892,-4.26933,C2,http://www.crtm.es,0.0,,Europe/Madrid,0.0
0,CR,C-4a,Parla-Atocha-Sol-Chamartín-Cantoblanco-Alcobendas S.Sebastián de los Reyes,0,b'parla',par_5_53,53.0,,40.240779939933894,-3.7692684670888297,B2,http://www.crtm.es,0.0,,Europe/Madrid,2.0
1,CR,C-4a,Parla-Atocha-Sol-Chamartín-Cantoblanco-Alcobendas S.Sebastián de los Reyes,1,b'getafe sector 3',par_5_36,36.0,,40.2882594725019,-3.73724253672422,B1,http://www.crtm.es,0.0,,Europe/Madrid,2.0
2,CR,C-4a,Parla-Atocha-Sol-Chamartín-Cantoblanco-Alcobendas S.Sebastián de los Reyes,2,b'getafe centro',par_5_34,34.0,,40.3101101574552,-3.7338437082439397,B1,http://www.crtm.es,0.0,,Europe/Madrid,2.0
3,CR,C-4a,Parla-Atocha-Sol-Chamartín-Cantoblanco-Alcobendas S.Sebastián de los Reyes,3,b'las margaritas - universidad',,,,,,,,,,,
4,CR,C-4a,Parla-Atocha-Sol-Chamartín-Cantoblanco-Alcobendas S.Sebastián de los Reyes,4,b'villaverde alto',par_5_92,92.0,,40.3412389095586,-3.71183451015835,A,http://www.crtm.es,0.0,,Europe/Madrid,2.0
5,CR,C-4a,Parla-Atocha-Sol-Chamartín-Cantoblanco-Alcobendas S.Sebastián de los Reyes,5,b'villaverde bajo',par_5_93,93.0,,40.3526507971254,-3.6838931087357905,A,http://www.crtm.es,0.0,,Europe/Madrid,2.0
6,CR,C-4a,Parla-Atocha-Sol-Chamartín-Cantoblanco-Alcobendas S.Sebastián de los Reyes,6,b'atocha',par_5_11,11.0,,40.4066011651398,-3.6892118408395898,A,http://www.crtm.es,0.0,est_90_54,,2.0
7,CR,C-4a,Parla-Atocha-Sol-Chamartín-Cantoblanco-Alcobendas S.Sebastián de los Reyes,7,b'sol',par_5_122,122.0,,40.4168514100817,-3.7030009543679907,A,http://www.crtm.es,0.0,est_90_58,,0.0
8,CR,C-4a,Parla-Atocha-Sol-Chamartín-Cantoblanco-Alcobendas S.Sebastián de los Reyes,8,b'nuevos ministerios',par_5_51,51.0,,40.4466277031815,-3.6922501798623597,A,http://www.crtm.es,0.0,est_90_71,,2.0
8,CR,C-4a,Parla-Atocha-Sol-Chamartín-Cantoblanco-Alcobendas S.Sebastián de los Reyes,8,b'nuevos ministerios',est_90_71,71.0,Calle de Raimundo Fernández Villaverde 67,40.44662,-3.69246,A,http://www.crtm.es,1.0,,Europe/Madrid,0.0
9,CR,C-4a,Parla-Atocha-Sol-Chamartín-Cantoblanco-Alcobendas S.Sebastián de los Reyes,9,b'chamartin',par_5_18,18.0,,40.4721094623497,-3.68237859937536,A,http://www.crtm.es,0.0,est_90_25,,2.0
9,CR,C-4a,Parla-Atocha-Sol-Chamartín-Cantoblanco-Alcobendas S.Sebastián de los Reyes,9,b'chamartin',est_90_25,25.0,Calle de Agustín de Foxá 40,40.4721,-3.68269,A,http://www.crtm.es,1.0,,Europe/Madrid,0.0
10,CR,C-4a,Parla-Atocha-Sol-Chamartín-Cantoblanco-Alcobendas S.Sebastián de los Reyes,10,b'fuencarral',par_5_31,31.0,,40.5015691134975,-3.68225218377436,A,http://www.crtm.es,0.0,,Europe/Madrid,2.0
11,CR,C-4a,Parla-Atocha-Sol-Chamartín-Cantoblanco-Alcobendas S.Sebastián de los Reyes,11,b'cantoblanco universidad',par_5_15,15.0,,40.5437936933619,-3.70025235112853,B1,http://www.crtm.es,0.0,,Europe/Madrid,2.0
12,CR,C-4a,Parla-Atocha-Sol-Chamartín-Cantoblanco-Alcobendas S.Sebastián de los Reyes,12,b'universidad p. comillas',par_5_84,84.0,,40.5540663923206,-3.68324540394647,B1,http://www.crtm.es,0.0,,Europe/Madrid,2.0
13,CR,C-4a,Parla-Atocha-Sol-Chamartín-Cantoblanco-Alcobendas S.Sebastián de los Reyes,13,b'valdelasfuentes',par_5_85,85.0,,40.547450679886204,-3.6542443385913597,B1,http://www.crtm.es,0.0,,Europe/Madrid,2.0
14,CR,C-4a,Parla-Atocha-Sol-Chamartín-Cantoblanco-Alcobendas S.Sebastián de los Reyes,14,b'alcobendas - s.s. de los reyes',,,,,,,,,,,
0,CR,C-4b,Parla-Atocha-Sol-Chamartín-Cantoblanco-Colmenar Viejo,0,b'parla',par_5_53,53.0,,40.240779939933894,-3.7692684670888297,B2,http://www.crtm.es,0.0,,Europe/Madrid,2.0
1,CR,C-4b,Parla-Atocha-Sol-Chamartín-Cantoblanco-Colmenar Viejo,1,b'getafe sector 3',par_5_36,36.0,,40.2882594725019,-3.73724253672422,B1,http://www.crtm.es,0.0,,Europe/Madrid,2.0
2,CR,C-4b,Parla-Atocha-Sol-Chamartín-Cantoblanco-Colmenar Viejo,2,b'getafe centro',par_5_34,34.0,,40.3101101574552,-3.7338437082439397,B1,http://www.crtm.es,0.0,,Europe/Madrid,2.0
3,CR,C-4b,Parla-Atocha-Sol-Chamartín-Cantoblanco-Colmenar Viejo,3,b'las margaritas - universidad',,,,,,,,,,,
4,CR,C-4b,Parla-Atocha-Sol-Chamartín-Cantoblanco-Colmenar Viejo,4,b'villaverde alto',par_5_92,92.0,,40.3412389095586,-3.71183451015835,A,http://www.crtm.es,0.0,,Europe/Madrid,2.0
5,CR,C-4b,Parla-Atocha-Sol-Chamartín-Cantoblanco-Colmenar Viejo,5,b'villaverde bajo',par_5_93,93.0,,40.3526507971254,-3.6838931087357905,A,http://www.crtm.es,0.0,,Europe/Madrid,2.0
6,CR,C-4b,Parla-Atocha-Sol-Chamartín-Cantoblanco-Colmenar Viejo,6,b'atocha',par_5_11,11.0,,40.4066011651398,-3.6892118408395898,A,http://www.crtm.es,0.0,est_90_54,,2.0
7,CR,C-4b,Parla-Atocha-Sol-Chamartín-Cantoblanco-Colmenar Viejo,7,b'sol',par_5_122,122.0,,40.4168514100817,-3.7030009543679907,A,http://www.crtm.es,0.0,est_90_58,,0.0
8,CR,C-4b,Parla-Atocha-Sol-Chamartín-Cantoblanco-Colmenar Viejo,8,b'nuevos ministerios',par_5_51,51.0,,40.4466277031815,-3.6922501798623597,A,http://www.crtm.es,0.0,est_90_71,,2.0
8,CR,C-4b,Parla-Atocha-Sol-Chamartín-Cantoblanco-Colmenar Viejo,8,b'nuevos ministerios',est_90_71,71.0,Calle de Raimundo Fernández Villaverde 67,40.44662,-3.69246,A,http://www.crtm.es,1.0,,Europe/Madrid,0.0
9,CR,C-4b,Parla-Atocha-Sol-Chamartín-Cantoblanco-Colmenar Viejo,9,b'chamartin',par_5_18,18.0,,40.4721094623497,-3.68237859937536,A,http://www.crtm.es,0.0,est_90_25,,2.0
9,CR,C-4b,Parla-Atocha-Sol-Chamartín-Cantoblanco-Colmenar Viejo,9,b'chamartin',est_90_25,25.0,Calle de Agustín de Foxá 40,40.4721,-3.68269,A,http://www.crtm.es,1.0,,Europe/Madrid,0.0
10,CR,C-4b,Parla-Atocha-Sol-Chamartín-Cantoblanco-Colmenar Viejo,10,b'fuencarral',par_5_31,31.0,,40.5015691134975,-3.68225218377436,A,http://www.crtm.es,0.0,,Europe/Madrid,2.0
11,CR,C-4b,Parla-Atocha-Sol-Chamartín-Cantoblanco-Colmenar Viejo,11,b'cantoblanco universidad',par_5_15,15.0,,40.5437936933619,-3.70025235112853,B1,http://www.crtm.es,0.0,,Europe/Madrid,2.0
12,CR,C-4b,Parla-Atocha-Sol-Chamartín-Cantoblanco-Colmenar Viejo,12,b'el goloso',,,,,,,,,,,
13,CR,C-4b,Parla-Atocha-Sol-Chamartín-Cantoblanco-Colmenar Viejo,13,b'tres cantos',par_5_83,83.0,,40.598445766728396,-3.7155602151020597,B2,http://www.crtm.es,0.0,,Europe/Madrid,1.0
14,CR,C-4b,Parla-Atocha-Sol-Chamartín-Cantoblanco-Colmenar Viejo,14,b'colmenar viejo',par_5_21,21.0,,40.6449747266778,-3.7756407081293397,B3,http://www.crtm.es,0.0,,Europe/Madrid,2.0
0,CR,C-5,Móstoles El Soto-Atocha-Fuenlabrada-Humanes,0,b'mostoles - el soto',,,,,,,,,,,
1,CR,C-5,Móstoles El Soto-Atocha-Fuenlabrada-Humanes,1,b'mostoles',par_5_48,48.0,,40.3285131038066,-3.86339907310142,B2,http://www.crtm.es,0.0,,Europe/Madrid,1.0
2,CR,C-5,Móstoles El Soto-Atocha-Fuenlabrada-Humanes,2,b'las retamas',,,,,,,,,,,
3,CR,C-5,Móstoles El Soto-Atocha-Fuenlabrada-Humanes,3,b'alcorcon',par_5_5,5.0,,40.350088208669796,-3.8316340093151497,B1,http://www.crtm.es,0.0,,Europe/Madrid,1.0
4,CR,C-5,Móstoles El Soto-Atocha-Fuenlabrada-Humanes,4,b'san jose de valderas',par_5_72,72.0,,40.3565433759808,-3.81579179255598,B1,http://www.crtm.es,0.0,,Europe/Madrid,0.0
5,CR,C-5,Móstoles El Soto-Atocha-Fuenlabrada-Humanes,5,b'cuatro vientos',par_5_24,24.0,,40.3777131916194,-3.7913444859579504,A,http://www.crtm.es,0.0,,Europe/Madrid,1.0
6,CR,C-5,Móstoles El Soto-Atocha-Fuenlabrada-Humanes,6,b'las aguilas',,,,,,,,,,,
7,CR,C-5,Móstoles El Soto-Atocha-Fuenlabrada-Humanes,7,b'fanjul',par_5_30,30.0,,40.3836601949576,-3.7684764339245294,A,http://www.crtm.es,0.0,,Europe/Madrid,0.0
8,CR,C-5,Móstoles El Soto-Atocha-Fuenlabrada-Humanes,8,b'aluche',par_5_7,7.0,,40.385639846032,-3.7606525397607404,A,http://www.crtm.es,0.0,est_90_1,,0.0
8,CR,C-5,Móstoles El Soto-Atocha-Fuenlabrada-Humanes,8,b'aluche',est_90_1,1.0,Calle de Valmojado 293,40.38563,-3.76085,A,http://www.crtm.es,1.0,,Europe/Madrid,0.0
9,CR,C-5,Móstoles El Soto-Atocha-Fuenlabrada-Humanes,9,b'laguna',par_5_40,40.0,,40.3991887229175,-3.74413102406784,A,http://www.crtm.es,0.0,,Europe/Madrid,0.0
10,CR,C-5,Móstoles El Soto-Atocha-Fuenlabrada-Humanes,10,b'embajadores',par_5_28,28.0,,40.405133584937296,-3.7025372643519106,A,http://www.crtm.es,0.0,,Europe/Madrid,1.0
11,CR,C-5,Móstoles El Soto-Atocha-Fuenlabrada-Humanes,11,b'atocha',par_5_11,11.0,,40.4066011651398,-3.6892118408395898,A,http://www.crtm.es,0.0,est_90_54,,2.0
12,CR,C-5,Móstoles El Soto-Atocha-Fuenlabrada-Humanes,12,b'mendez alvaro',par_5_46,46.0,,40.3953883033481,-3.6779860250306404,A,http://www.crtm.es,0.0,est_90_13,,1.0
13,CR,C-5,Móstoles El Soto-Atocha-Fuenlabrada-Humanes,13,b'doce de octubre',par_5_26,26.0,,40.378968823860895,-3.69851928058378,A,http://www.crtm.es,0.0,,Europe/Madrid,0.0
14,CR,C-5,Móstoles El Soto-Atocha-Fuenlabrada-Humanes,14,b'orcasitas',par_5_52,52.0,,40.3669156270104,-3.7043192311254303,A,http://www.crtm.es,0.0,,Europe/Madrid,0.0
15,CR,C-5,Móstoles El Soto-Atocha-Fuenlabrada-Humanes,15,b'puente alcocer',par_5_62,62.0,,40.350298433469,-3.7050647920732795,A,http://www.crtm.es,0.0,,Europe/Madrid,0.0
16,CR,C-5,Móstoles El Soto-Atocha-Fuenlabrada-Humanes,16,b'villaverde alto',par_5_92,92.0,,40.3412389095586,-3.71183451015835,A,http://www.crtm.es,0.0,,Europe/Madrid,2.0
17,CR,C-5,Móstoles El Soto-Atocha-Fuenlabrada-Humanes,17,b'zarzaquemada',par_5_95,95.0,,40.3408651674076,-3.74821098376834,B1,http://www.crtm.es,0.0,,Europe/Madrid,1.0
18,CR,C-5,Móstoles El Soto-Atocha-Fuenlabrada-Humanes,18,b'leganes',par_5_41,41.0,,40.3289921512769,-3.77138744820868,B1,http://www.crtm.es,0.0,,Europe/Madrid,1.0
19,CR,C-5,Móstoles El Soto-Atocha-Fuenlabrada-Humanes,19,b'parque polvoranca',par_5_105,105.0,,40.3125159337883,-3.78325102527616,B1,http://www.crtm.es,0.0,,Europe/Madrid,1.0
20,CR,C-5,Móstoles El Soto-Atocha-Fuenlabrada-Humanes,20,b'la serna',,,,,,,,,,,
21,CR,C-5,Móstoles El Soto-Atocha-Fuenlabrada-Humanes,21,b'fuenlabrada',par_5_32,32.0,,40.2826888663979,-3.79876380807025,B2,http://www.crtm.es,0.0,,Europe/Madrid,1.0
22,CR,C-5,Móstoles El Soto-Atocha-Fuenlabrada-Humanes,22,b'humanes',par_5_104,104.0,,40.255660506545404,-3.82837195835634,B3,http://www.crtm.es,0.0,,Europe/Madrid,1.0
0,CR,C-7,Alcalá de Henares-Atocha-Chamartín-Príncipe Pío,0,b'alcala de henares',par_5_2,2.0,,40.489038872521206,-3.36625200624717,B3,http://www.crtm.es,0.0,,Europe/Madrid,0.0
1,CR,C-7,Alcalá de Henares-Atocha-Chamartín-Príncipe Pío,1,b'la garena',,,,,,,,,,,
2,CR,C-7,Alcalá de Henares-Atocha-Chamartín-Príncipe Pío,2,b'soto del henares',par_5_143,143.0,,40.463542902172996,-3.44124824645267,B2,http://www.crtm.es,0.0,,Europe/Madrid,0.0
3,CR,C-7,Alcalá de Henares-Atocha-Chamartín-Príncipe Pío,3,b'torrejon de ardoz',par_5_81,81.0,,40.454614888402,-3.4797310604898,B2,http://www.crtm.es,0.0,,Europe/Madrid,0.0
4,CR,C-7,Alcalá de Henares-Atocha-Chamartín-Príncipe Pío,4,b'san fernando',par_5_71,71.0,,40.4426754342948,-3.5337569967628504,B1,http://www.crtm.es,0.0,,Europe/Madrid,0.0
5,CR,C-7,Alcalá de Henares-Atocha-Chamartín-Príncipe Pío,5,b'coslada',par_5_22,22.0,,40.4237445026866,-3.56105002582089,B1,http://www.crtm.es,0.0,,Europe/Madrid,1.0
6,CR,C-7,Alcalá de Henares-Atocha-Chamartín-Príncipe Pío,6,b'vicalvaro',par_5_90,90.0,,40.40132727162921,-3.59583931493827,A,http://www.crtm.es,0.0,,Europe/Madrid,0.0
7,CR,C-7,Alcalá de Henares-Atocha-Chamartín-Príncipe Pío,7,b'santa eugenia',par_5_75,75.0,,40.386997622806604,-3.6089673976787697,A,http://www.crtm.es,0.0,,Europe/Madrid,0.0
8,CR,C-7,Alcalá de Henares-Atocha-Chamartín-Príncipe Pío,8,b'vallecas',par_5_87,87.0,,40.3822212818191,-3.6244633059562896,A,http://www.crtm.es,0.0,,Europe/Madrid,1.0
9,CR,C-7,Alcalá de Henares-Atocha-Chamartín-Príncipe Pío,9,b'el pozo',,,,,,,,,,,
10,CR,C-7,Alcalá de Henares-Atocha-Chamartín-Príncipe Pío,10,b'asamblea de madrid-entrevias',par_5_10,10.0,,40.381681158248604,-3.66791743399165,A,http://www.crtm.es,0.0,,Europe/Madrid,0.0
11,CR,C-7,Alcalá de Henares-Atocha-Chamartín-Príncipe Pío,11,b'atocha',par_5_11,11.0,,40.4066011651398,-3.6892118408395898,A,http://www.crtm.es,0.0,est_90_54,,2.0
12,CR,C-7,Alcalá de Henares-Atocha-Chamartín-Príncipe Pío,12,b'recoletos',par_5_65,65.0,,40.423420623761295,-3.6907626799938704,A,http://www.crtm.es,0.0,,Europe/Madrid,0.0
13,CR,C-7,Alcalá de Henares-Atocha-Chamartín-Príncipe Pío,13,b'nuevos ministerios',par_5_51,51.0,,40.4466277031815,-3.6922501798623597,A,http://www.crtm.es,0.0,est_90_71,,2.0
13,CR,C-7,Alcalá de Henares-Atocha-Chamartín-Príncipe Pío,13,b'nuevos ministerios',est_90_71,71.0,Calle de Raimundo Fernández Villaverde 67,40.44662,-3.69246,A,http://www.crtm.es,1.0,,Europe/Madrid,0.0
14,CR,C-7,Alcalá de Henares-Atocha-Chamartín-Príncipe Pío,14,b'chamartin',par_5_18,18.0,,40.4721094623497,-3.68237859937536,A,http://www.crtm.es,0.0,est_90_25,,2.0
14,CR,C-7,Alcalá de Henares-Atocha-Chamartín-Príncipe Pío,14,b'chamartin',est_90_25,25.0,Calle de Agustín de Foxá 40,40.4721,-3.68269,A,http://www.crtm.es,1.0,,Europe/Madrid,0.0
15,CR,C-7,Alcalá de Henares-Atocha-Chamartín-Príncipe Pío,15,b'ramon y cajal',par_5_64,64.0,,40.4882522939954,-3.6946481959126496,A,http://www.crtm.es,0.0,,Europe/Madrid,0.0
16,CR,C-7,Alcalá de Henares-Atocha-Chamartín-Príncipe Pío,16,b'mirasierra-paco de lucia',par_5_145,145.0,,40.4997,-3.7091,A,http://www.crtm.es,0.0,,Europe/Madrid,0.0
17,CR,C-7,Alcalá de Henares-Atocha-Chamartín-Príncipe Pío,17,b'pitis',par_5_58,58.0,,40.495115042597604,-3.72575435236588,A,http://www.crtm.es,0.0,,Europe/Madrid,1.0
18,CR,C-7,Alcalá de Henares-Atocha-Chamartín-Príncipe Pío,18,b'las rozas',,,,,,,,,,,
19,CR,C-7,Alcalá de Henares-Atocha-Chamartín-Príncipe Pío,19,b'majadahonda',par_5_42,42.0,,40.474285233963705,-3.8452561987825202,B2,http://www.crtm.es,0.0,,Europe/Madrid,1.0
20,CR,C-7,Alcalá de Henares-Atocha-Chamartín-Príncipe Pío,20,b'el barrial - c.c. pozuelo',,,,,,,,,,,
21,CR,C-7,Alcalá de Henares-Atocha-Chamartín-Príncipe Pío,21,b'pozuelo',par_5_60,60.0,,40.4472743567471,-3.8000251574227204,B1,http://www.crtm.es,0.0,,Europe/Madrid,0.0
22,CR,C-7,Alcalá de Henares-Atocha-Chamartín-Príncipe Pío,22,b'aravaca',par_5_9,9.0,,40.4483360938325,-3.78576906207162,A,http://www.crtm.es,0.0,,Europe/Madrid,1.0
23,CR,C-7,Alcalá de Henares-Atocha-Chamartín-Príncipe Pío,23,b'principe pio',par_5_61,61.0,,40.4210790188043,-3.7201723106450295,A,http://www.crtm.es,0.0,est_90_18,,0.0
0,CR,C-8,Guadalajara-Alcalá de Henares-Atocha-Chamartín-Villalba-Cercedilla,0,b'guadalajara',par_5_38,38.0,,40.6440936102746,-3.18230377067774,C2,http://www.crtm.es,0.0,,Europe/Madrid,0.0
1,CR,C-8,Guadalajara-Alcalá de Henares-Atocha-Chamartín-Villalba-Cercedilla,1,b'azuqueca',par_5_12,12.0,,40.5610431126363,-3.26537808007204,C1,http://www.crtm.es,0.0,,Europe/Madrid,1.0
2,CR,C-8,Guadalajara-Alcalá de Henares-Atocha-Chamartín-Villalba-Cercedilla,2,b'meco',par_5_45,45.0,,40.534629296321,-3.29857120296861,C1,http://www.crtm.es,0.0,,Europe/Madrid,0.0
3,CR,C-8,Guadalajara-Alcalá de Henares-Atocha-Chamartín-Villalba-Cercedilla,3,b'alcala de henares universidad',par_5_3,3.0,,40.5053487667517,-3.33532393016683,B3,http://www.crtm.es,0.0,,Europe/Madrid,0.0
4,CR,C-8,Guadalajara-Alcalá de Henares-Atocha-Chamartín-Villalba-Cercedilla,4,b'alcala de henares',par_5_2,2.0,,40.489038872521206,-3.36625200624717,B3,http://www.crtm.es,0.0,,Europe/Madrid,0.0
5,CR,C-8,Guadalajara-Alcalá de Henares-Atocha-Chamartín-Villalba-Cercedilla,5,b'la garena',,,,,,,,,,,
6,CR,C-8,Guadalajara-Alcalá de Henares-Atocha-Chamartín-Villalba-Cercedilla,6,b'soto del henares',par_5_143,143.0,,40.463542902172996,-3.44124824645267,B2,http://www.crtm.es,0.0,,Europe/Madrid,0.0
7,CR,C-8,Guadalajara-Alcalá de Henares-Atocha-Chamartín-Villalba-Cercedilla,7,b'torrejon de ardoz',par_5_81,81.0,,40.454614888402,-3.4797310604898,B2,http://www.crtm.es,0.0,,Europe/Madrid,0.0
8,CR,C-8,Guadalajara-Alcalá de Henares-Atocha-Chamartín-Villalba-Cercedilla,8,b'san fernando',par_5_71,71.0,,40.4426754342948,-3.5337569967628504,B1,http://www.crtm.es,0.0,,Europe/Madrid,0.0
9,CR,C-8,Guadalajara-Alcalá de Henares-Atocha-Chamartín-Villalba-Cercedilla,9,b'coslada',par_5_22,22.0,,40.4237445026866,-3.56105002582089,B1,http://www.crtm.es,0.0,,Europe/Madrid,1.0
10,CR,C-8,Guadalajara-Alcalá de Henares-Atocha-Chamartín-Villalba-Cercedilla,10,b'vicalvaro',par_5_90,90.0,,40.40132727162921,-3.59583931493827,A,http://www.crtm.es,0.0,,Europe/Madrid,0.0
11,CR,C-8,Guadalajara-Alcalá de Henares-Atocha-Chamartín-Villalba-Cercedilla,11,b'santa eugenia',par_5_75,75.0,,40.386997622806604,-3.6089673976787697,A,http://www.crtm.es,0.0,,Europe/Madrid,0.0
12,CR,C-8,Guadalajara-Alcalá de Henares-Atocha-Chamartín-Villalba-Cercedilla,12,b'vallecas',par_5_87,87.0,,40.3822212818191,-3.6244633059562896,A,http://www.crtm.es,0.0,,Europe/Madrid,1.0
13,CR,C-8,Guadalajara-Alcalá de Henares-Atocha-Chamartín-Villalba-Cercedilla,13,b'el pozo',,,,,,,,,,,
14,CR,C-8,Guadalajara-Alcalá de Henares-Atocha-Chamartín-Villalba-Cercedilla,14,b'asamblea de madrid-entrevias',par_5_10,10.0,,40.381681158248604,-3.66791743399165,A,http://www.crtm.es,0.0,,Europe/Madrid,0.0
15,CR,C-8,Guadalajara-Alcalá de Henares-Atocha-Chamartín-Villalba-Cercedilla,15,b'atocha',par_5_11,11.0,,40.4066011651398,-3.6892118408395898,A,http://www.crtm.es,0.0,est_90_54,,2.0
16,CR,C-8,Guadalajara-Alcalá de Henares-Atocha-Chamartín-Villalba-Cercedilla,16,b'recoletos',par_5_65,65.0,,40.423420623761295,-3.6907626799938704,A,http://www.crtm.es,0.0,,Europe/Madrid,0.0
17,CR,C-8,Guadalajara-Alcalá de Henares-Atocha-Chamartín-Villalba-Cercedilla,17,b'nuevos ministerios',par_5_51,51.0,,40.4466277031815,-3.6922501798623597,A,http://www.crtm.es,0.0,est_90_71,,2.0
17,CR,C-8,Guadalajara-Alcalá de Henares-Atocha-Chamartín-Villalba-Cercedilla,17,b'nuevos ministerios',est_90_71,71.0,Calle de Raimundo Fernández Villaverde 67,40.44662,-3.69246,A,http://www.crtm.es,1.0,,Europe/Madrid,0.0
18,CR,C-8,Guadalajara-Alcalá de Henares-Atocha-Chamartín-Villalba-Cercedilla,18,b'chamartin',par_5_18,18.0,,40.4721094623497,-3.68237859937536,A,http://www.crtm.es,0.0,est_90_25,,2.0
18,CR,C-8,Guadalajara-Alcalá de Henares-Atocha-Chamartín-Villalba-Cercedilla,18,b'chamartin',est_90_25,25.0,Calle de Agustín de Foxá 40,40.4721,-3.68269,A,http://www.crtm.es,1.0,,Europe/Madrid,0.0
19,CR,C-8,Guadalajara-Alcalá de Henares-Atocha-Chamartín-Villalba-Cercedilla,19,b'ramon y cajal',par_5_64,64.0,,40.4882522939954,-3.6946481959126496,A,http://www.crtm.es,0.0,,Europe/Madrid,0.0
20,CR,C-8,Guadalajara-Alcalá de Henares-Atocha-Chamartín-Villalba-Cercedilla,20,b'mirasierra-paco de lucia',par_5_145,145.0,,40.4997,-3.7091,A,http://www.crtm.es,0.0,,Europe/Madrid,0.0
21,CR,C-8,Guadalajara-Alcalá de Henares-Atocha-Chamartín-Villalba-Cercedilla,21,b'pitis',par_5_58,58.0,,40.495115042597604,-3.72575435236588,A,http://www.crtm.es,0.0,,Europe/Madrid,1.0
22,CR,C-8,Guadalajara-Alcalá de Henares-Atocha-Chamartín-Villalba-Cercedilla,22,b'pinar de las rozas',par_5_55,55.0,,40.5223060941516,-3.8820657658893998,B2,http://www.crtm.es,0.0,,Europe/Madrid,0.0
23,CR,C-8,Guadalajara-Alcalá de Henares-Atocha-Chamartín-Villalba-Cercedilla,23,b'las matas',,,,,,,,,,,
24,CR,C-8,Guadalajara-Alcalá de Henares-Atocha-Chamartín-Villalba-Cercedilla,24,b'torrelodones',par_5_82,82.0,,40.574513990894,-3.95644911190209,B3,http://www.crtm.es,0.0,,Europe/Madrid,1.0
25,CR,C-8,Guadalajara-Alcalá de Henares-Atocha-Chamartín-Villalba-Cercedilla,25,b'galapagar - la navata',,,,,,,,,,,
26,CR,C-8,Guadalajara-Alcalá de Henares-Atocha-Chamartín-Villalba-Cercedilla,26,b'villalba',par_5_91,91.0,,40.6263702008332,-4.00800585940991,B3,http://www.crtm.es,0.0,,Europe/Madrid,1.0
27,CR,C-8,Guadalajara-Alcalá de Henares-Atocha-Chamartín-Villalba-Cercedilla,27,b'los negrales',,,,,,,,,,,
28,CR,C-8,Guadalajara-Alcalá de Henares-Atocha-Chamartín-Villalba-Cercedilla,28,b'alpedrete',par_5_6,6.0,,40.658165812941,-4.03496961859464,C1,http://www.crtm.es,0.0,,Europe/Madrid,0.0
29,CR,C-8,Guadalajara-Alcalá de Henares-Atocha-Chamartín-Villalba-Cercedilla,29,b'collado mediano',par_5_20,20.0,,40.692759921718995,-4.03577699260154,C1,http://www.crtm.es,0.0,,Europe/Madrid,0.0
30,CR,C-8,Guadalajara-Alcalá de Henares-Atocha-Chamartín-Villalba-Cercedilla,30,b'los molinos',,,,,,,,,,,
31,CR,C-8,Guadalajara-Alcalá de Henares-Atocha-Chamartín-Villalba-Cercedilla,31,b'cercedilla',par_5_16,16.0,,40.7375733500909,-4.06580719855992,C2,http://www.crtm.es,0.0,,Europe/Madrid,1.0
0,CR,C-9,Cercedilla-Cotos,0,b'cercedilla',par_5_16,16.0,,40.7375733500909,-4.06580719855992,C2,http://www.crtm.es,0.0,,Europe/Madrid,1.0
1,CR,C-9,Cercedilla-Cotos,1,b'puerto de navacerrada',,,,,,,,,,,
2,CR,C-9,Cercedilla-Cotos,2,b'cotos',par_5_23,23.0,,40.8222601406103,-3.96443439316078,C2,http://www.crtm.es,0.0,,Europe/Madrid,0.0
0,CR,C-10,Villalba-Príncipe Pío-Atocha-Recoletos-Chamartín-Aeropuerto T4,0,b'villalba',par_5_91,91.0,,40.6263702008332,-4.00800585940991,B3,http://www.crtm.es,0.0,,Europe/Madrid,1.0
1,CR,C-10,Villalba-Príncipe Pío-Atocha-Recoletos-Chamartín-Aeropuerto T4,1,b'galapagar - la navata',,,,,,,,,,,
2,CR,C-10,Villalba-Príncipe Pío-Atocha-Recoletos-Chamartín-Aeropuerto T4,2,b'torrelodones',par_5_82,82.0,,40.574513990894,-3.95644911190209,B3,http://www.crtm.es,0.0,,Europe/Madrid,1.0
3,CR,C-10,Villalba-Príncipe Pío-Atocha-Recoletos-Chamartín-Aeropuerto T4,3,b'las matas',,,,,,,,,,,
4,CR,C-10,Villalba-Príncipe Pío-Atocha-Recoletos-Chamartín-Aeropuerto T4,4,b'pinar de las rozas',par_5_55,55.0,,40.5223060941516,-3.8820657658893998,B2,http://www.crtm.es,0.0,,Europe/Madrid,0.0
5,CR,C-10,Villalba-Príncipe Pío-Atocha-Recoletos-Chamartín-Aeropuerto T4,5,b'las rozas',,,,,,,,,,,
6,CR,C-10,Villalba-Príncipe Pío-Atocha-Recoletos-Chamartín-Aeropuerto T4,6,b'majadahonda',par_5_42,42.0,,40.474285233963705,-3.8452561987825202,B2,http://www.crtm.es,0.0,,Europe/Madrid,1.0
7,CR,C-10,Villalba-Príncipe Pío-Atocha-Recoletos-Chamartín-Aeropuerto T4,7,b'el barrial - c.c. pozuelo',,,,,,,,,,,
8,CR,C-10,Villalba-Príncipe Pío-Atocha-Recoletos-Chamartín-Aeropuerto T4,8,b'pozuelo',par_5_60,60.0,,40.4472743567471,-3.8000251574227204,B1,http://www.crtm.es,0.0,,Europe/Madrid,0.0
9,CR,C-10,Villalba-Príncipe Pío-Atocha-Recoletos-Chamartín-Aeropuerto T4,9,b'aravaca',par_5_9,9.0,,40.4483360938325,-3.78576906207162,A,http://www.crtm.es,0.0,,Europe/Madrid,1.0
10,CR,C-10,Villalba-Príncipe Pío-Atocha-Recoletos-Chamartín-Aeropuerto T4,10,b'principe pio',par_5_61,61.0,,40.4210790188043,-3.7201723106450295,A,http://www.crtm.es,0.0,est_90_18,,0.0
11,CR,C-10,Villalba-Príncipe Pío-Atocha-Recoletos-Chamartín-Aeropuerto T4,11,b'piramides',par_5_57,57.0,,40.4026028948529,-3.71124315951466,A,http://www.crtm.es,0.0,,Europe/Madrid,1.0
12,CR,C-10,Villalba-Príncipe Pío-Atocha-Recoletos-Chamartín-Aeropuerto T4,12,b'delicias',par_5_25,25.0,,40.400382320912,-3.6926718217550896,A,http://www.crtm.es,0.0,,Europe/Madrid,1.0
13,CR,C-10,Villalba-Príncipe Pío-Atocha-Recoletos-Chamartín-Aeropuerto T4,13,b'mendez alvaro',par_5_46,46.0,,40.3953883033481,-3.6779860250306404,A,http://www.crtm.es,0.0,est_90_13,,1.0
14,CR,C-10,Villalba-Príncipe Pío-Atocha-Recoletos-Chamartín-Aeropuerto T4,14,b'atocha',par_5_11,11.0,,40.4066011651398,-3.6892118408395898,A,http://www.crtm.es,0.0,est_90_54,,2.0
15,CR,C-10,Villalba-Príncipe Pío-Atocha-Recoletos-Chamartín-Aeropuerto T4,15,b'recoletos',par_5_65,65.0,,40.423420623761295,-3.6907626799938704,A,http://www.crtm.es,0.0,,Europe/Madrid,0.0
16,CR,C-10,Villalba-Príncipe Pío-Atocha-Recoletos-Chamartín-Aeropuerto T4,16,b'nuevos ministerios',par_5_51,51.0,,40.4466277031815,-3.6922501798623597,A,http://www.crtm.es,0.0,est_90_71,,2.0
16,CR,C-10,Villalba-Príncipe Pío-Atocha-Recoletos-Chamartín-Aeropuerto T4,16,b'nuevos ministerios',est_90_71,71.0,Calle de Raimundo Fernández Villaverde 67,40.44662,-3.69246,A,http://www.crtm.es,1.0,,Europe/Madrid,0.0
17,CR,C-10,Villalba-Príncipe Pío-Atocha-Recoletos-Chamartín-Aeropuerto T4,17,b'chamartin',par_5_18,18.0,,40.4721094623497,-3.68237859937536,A,http://www.crtm.es,0.0,est_90_25,,2.0
17,CR,C-10,Villalba-Príncipe Pío-Atocha-Recoletos-Chamartín-Aeropuerto T4,17,b'chamartin',est_90_25,25.0,Calle de Agustín de Foxá 40,40.4721,-3.68269,A,http://www.crtm.es,1.0,,Europe/Madrid,0.0
18,CR,C-10,Villalba-Príncipe Pío-Atocha-Recoletos-Chamartín-Aeropuerto T4,18,b'fuente de la mora',par_5_133,133.0,,40.4847551076476,-3.66273198940419,A,http://www.crtm.es,0.0,,Europe/Madrid,2.0
19,CR,C-10,Villalba-Príncipe Pío-Atocha-Recoletos-Chamartín-Aeropuerto T4,19,b'valdebebas',par_5_144,144.0,,40.4823091642411,-3.61634057588727,A,http://www.crtm.es,0.0,,Europe/Madrid,2.0
20,CR,C-10,Villalba-Príncipe Pío-Atocha-Recoletos-Chamartín-Aeropuerto T4,20,b'aeropuerto t4',par_5_142,142.0,,40.4917812474987,-3.59324027187479,A,http://www.crtm.es,0.0,est_90_33,,2.0
20,CR,C-10,Villalba-Príncipe Pío-Atocha-Recoletos-Chamartín-Aeropuerto T4,20,b'aeropuerto t4',est_90_33,33.0,Ctra de Alcobendas a Barajas SN,40.49176,-3.5935599999999996,A,http://www.crtm.es,1.0,,Europe/Madrid,0.0
