transportmean_name,line_number,order_number,stop_id,stop_code,stop_name,stop_desc,stop_lat,stop_lon,zone_id,stop_url,location_type,parent_station,stop_timezone,wheelchair_boarding
METRO,1,0,est_4_263,263.0,pinarchamartin,Calle de Arturo Soria 330,40.480140000000006,-3.6668,A,http://www.crtm.es,1.0,,Europe/Madrid,2
METRO,1,1,est_4_262,262.0,bambu,Calle del Bambú 14,40.476820000000004,-3.67637,A,http://www.crtm.es,1.0,,Europe/Madrid,2
METRO,1,2,est_90_25,25.0,chamartin,Calle de Agustín de Foxá 40,40.4721,-3.68269,A,http://www.crtm.es,1.0,,Europe/Madrid,0
METRO,1,4,est_4_2,2.0,valdeacederas,Calle de Bravo Murillo 332,40.464420000000004,-3.69506,A,http://www.crtm.es,1.0,,Europe/Madrid,0
METRO,1,5,est_4_3,3.0,tetuan,Calle de Bravo Murillo 264,40.46055,-3.69825,A,http://www.crtm.es,1.0,,Europe/Madrid,0
METRO,1,6,est_4_4,4.0,estrecho,Calle de Bravo Murillo 191,40.45429,-3.7030199999999995,A,http://www.crtm.es,1.0,,Europe/Madrid,0
METRO,1,7,est_4_5,5.0,alvarado,Calle de Bravo Murillo 138,40.45033,-3.7033099999999997,A,http://www.crtm.es,1.0,,Europe/Madrid,0
METRO,1,8,est_4_6,6.0,cuatrocaminos,Gta de Cuatro Caminos 2,40.44697,-3.7039699999999995,A,http://www.crtm.es,1.0,,Europe/Madrid,2
METRO,1,9,est_4_7,7.0,riosrosas,Calle de Ríos Rosas 22,40.44198,-3.7013300000000005,A,http://www.crtm.es,1.0,,Europe/Madrid,0
METRO,1,10,est_4_8,8.0,iglesia,Gta del Pintor Sorolla 2,40.43492,-3.69898,A,http://www.crtm.es,1.0,,Europe/Madrid,2
METRO,1,11,est_4_9,9.0,bilbao,Calle de Sagasta 2,40.42906,-3.7021800000000002,A,http://www.crtm.es,1.0,,Europe/Madrid,0
METRO,1,12,est_4_10,10.0,tribunal,Calle de Fuencarral 81,40.426190000000005,-3.7011,A,http://www.crtm.es,1.0,,Europe/Madrid,0
METRO,1,13,est_4_11,11.0,granvia,Calle   Gran Vía 23,40.42001,-3.7018,A,http://www.crtm.es,1.0,,Europe/Madrid,0
METRO,1,15,est_4_13,13.0,tirsomolina,Plaza de Tirso de Molina 7,40.41235,-3.70466,A,http://www.crtm.es,1.0,,Europe/Madrid,0
METRO,1,16,est_4_14,14.0,antonmartin,Calle de Atocha 50,40.412459999999996,-3.6993699999999996,A,http://www.crtm.es,1.0,,Europe/Madrid,0
METRO,1,17,est_4_15,15.0,estacionarte,Plaza del Emperador Carlos V 11,40.40885,-3.6924900000000003,A,http://www.crtm.es,1.0,,Europe/Madrid,0
METRO,1,19,est_4_17,17.0,menendezpelayo,Avda de la Ciudad de Barcelona 23,40.40445,-3.6809800000000004,A,http://www.crtm.es,1.0,,Europe/Madrid,0
METRO,1,20,est_4_18,18.0,pacifico,Avda de la Ciudad de Barcelona 79,40.40126,-3.6751400000000003,A,http://www.crtm.es,1.0,,Europe/Madrid,0
METRO,1,21,est_4_19,19.0,puentevallecas,Avda de la Albufera 1,40.39819,-3.66906,A,http://www.crtm.es,1.0,,Europe/Madrid,0
METRO,1,22,est_4_20,20.0,nuevanumancia,Avda de la Albufera 70,40.395540000000004,-3.66414,A,http://www.crtm.es,1.0,,Europe/Madrid,0
METRO,1,23,est_4_21,21.0,portazgo,Avda de la Albufera 131,40.39266,-3.6586800000000004,A,http://www.crtm.es,1.0,,Europe/Madrid,0
METRO,1,24,est_4_22,22.0,buenosaires,Avda de la Albufera 179,40.39156,-3.6539099999999998,A,http://www.crtm.es,1.0,,Europe/Madrid,0
METRO,1,25,est_4_23,23.0,altoarenal,Calle de Santillana del Mar 21,40.38977,-3.6452199999999997,A,http://www.crtm.es,1.0,,Europe/Madrid,2
METRO,1,26,est_4_24,24.0,miguelhernandez,Calle de León Felipe 4 A,40.38732,-3.63951,A,http://www.crtm.es,1.0,,Europe/Madrid,2
METRO,1,27,est_4_25,25.0,sierraguadalupe,Avda de la Democracia 1,40.38216,-3.6247199999999995,A,http://www.crtm.es,1.0,,Europe/Madrid,2
METRO,1,28,est_4_26,26.0,villavallecas,Paseo de Federico García Lorca 2,40.3796,-3.6213,A,http://www.crtm.es,1.0,,Europe/Madrid,2
METRO,1,29,est_4_27,27.0,congosto,Calle del Congosto 48,40.37238,-3.61884,A,http://www.crtm.es,1.0,,Europe/Madrid,2
METRO,1,30,est_4_293,293.0,gavia,Avda del Ensanche de Vallecas 16,40.37019,-3.61346,A,http://www.crtm.es,1.0,,Europe/Madrid,2
METRO,1,31,est_4_294,294.0,suertes,Calle de Cañada del Santísimo 45,40.36323,-3.59953,A,http://www.crtm.es,1.0,,Europe/Madrid,2
METRO,1,32,est_4_295,295.0,valdecarros,Avda del Ensanche de Vallecas 120 A,40.36007,-3.5931599999999997,A,http://www.crtm.es,1.0,,Europe/Madrid,2
METRO,2,0,est_4_325,325.0,rosas,Paseo de Ginebra 35,40.42375,-3.60331,A,http://www.crtm.es,1.0,,Europe/Madrid,0
METRO,2,1,est_4_324,324.0,avenidaguadalajara,Avda de Guadalajara 110,40.42239,-3.61206,A,http://www.crtm.es,1.0,,Europe/Madrid,0
METRO,2,2,est_4_323,323.0,alsacia,Plaza de Alsacia S/N,40.41829,-3.62351,,http://www.crtm.es,1.0,,Europe/Madrid,0
METRO,2,3,est_4_322,322.0,almudena,Calle de Arriaga 75,40.42361,-3.6391400000000003,,http://www.crtm.es,1.0,,Europe/Madrid,0
METRO,2,4,est_4_260,260.0,elipa,Avda del Marqués de Corbera 58,40.42662,-3.6505199999999998,A,http://www.crtm.es,1.0,,Europe/Madrid,2
METRO,2,5,est_4_28,28.0,ventas,Calle de Alcalá 204,40.43088,-3.6636599999999997,A,http://www.crtm.es,1.0,,Europe/Madrid,0
METRO,2,6,est_4_29,29.0,manuelbecerra,Plaza de Manuel Becerra 1,40.4279,-3.66926,A,http://www.crtm.es,1.0,,Europe/Madrid,0
METRO,2,7,est_4_30,30.0,goya,Calle de Alcalá 96,40.42455,-3.67591,A,http://www.crtm.es,1.0,,Europe/Madrid,2
METRO,2,8,est_4_31,31.0,principevergara,Calle de Alcalá 123,40.422940000000004,-3.6801199999999996,A,http://www.crtm.es,1.0,,Europe/Madrid,0
METRO,2,9,est_4_32,32.0,retiro,Calle de Alcalá 81,40.42031,-3.68624,A,http://www.crtm.es,1.0,,Europe/Madrid,0
METRO,2,10,est_4_33,33.0,bancoespana,Calle de Alcalá 49,40.41922,-3.6949699999999996,A,http://www.crtm.es,1.0,,Europe/Madrid,0
METRO,2,13,est_4_36,36.0,opera,Plaza de Isabel II 9,40.41809,-3.7094199999999997,A,http://www.crtm.es,1.0,,Europe/Madrid,0
METRO,2,14,est_4_37,37.0,santodomingo,Calle de San Bernardo 11,40.42132,-3.70796,A,http://www.crtm.es,1.0,,Europe/Madrid,0
METRO,2,16,est_4_39,39.0,sanbernardo,Calle de San Bernardo 94,40.430009999999996,-3.70557,A,http://www.crtm.es,1.0,,Europe/Madrid,0
METRO,2,17,est_4_40,40.0,quevedo,Gta de Quevedo 1,40.43322,-3.70433,A,http://www.crtm.es,1.0,,Europe/Madrid,0
METRO,2,18,est_4_41,41.0,canal,Calle de Bravo Murillo 40,40.43841,-3.70433,A,http://www.crtm.es,1.0,,Europe/Madrid,2
METRO,2,19,est_4_6,6.0,cuatrocaminos,Gta de Cuatro Caminos 2,40.44697,-3.7039699999999995,A,http://www.crtm.es,1.0,,Europe/Madrid,2
METRO,3,0,est_4_273,273.0,villaverdealto,Calle del Valle de Tobalina 56,40.341229999999996,-3.71199,A,http://www.crtm.es,1.0,,Europe/Madrid,2
METRO,3,1,est_4_272,272.0,sancristobal,Avda de Andalucía 81,40.34154,-3.6931800000000004,A,http://www.crtm.es,1.0,,Europe/Madrid,2
METRO,3,2,est_4_271,271.0,villaverdebajocruce,Avda de Andalucía 38,40.35089,-3.69265,A,http://www.crtm.es,1.0,,Europe/Madrid,2
METRO,3,3,est_4_270,270.0,ciudadangeles,Avda de Andalucía 38,40.359590000000004,-3.69363,A,http://www.crtm.es,1.0,,Europe/Madrid,2
METRO,3,4,est_4_269,269.0,sanferminorcasur,Avda de Andalucía 9,40.36999,-3.6941800000000002,A,http://www.crtm.es,1.0,,Europe/Madrid,2
METRO,3,5,est_4_268,268.0,hospital12octubre,Avda de Córdoba 49,40.375029999999995,-3.69585,A,http://www.crtm.es,1.0,,Europe/Madrid,2
METRO,3,6,est_4_267,267.0,almendrales,Avda de Córdoba 21,40.38409,-3.6978800000000005,A,http://www.crtm.es,1.0,,Europe/Madrid,2
METRO,3,7,est_4_43,43.0,legazpi,Plaza de Legazpi 2 B,40.39116,-3.6951099999999997,A,http://www.crtm.es,1.0,,Europe/Madrid,2
METRO,3,8,est_4_44,44.0,delicias,Paseo de las Delicias 60,40.3999,-3.6942,A,http://www.crtm.es,1.0,,Europe/Madrid,2
METRO,3,9,est_4_45,45.0,palosfrontera,Calle de Palos de la Frontera 33,40.40307,-3.69423,A,http://www.crtm.es,1.0,,Europe/Madrid,2
METRO,3,10,est_4_46,46.0,embajadores,Gta de Embajadores 10,40.40513,-3.7026800000000004,A,http://www.crtm.es,1.0,,Europe/Madrid,2
METRO,3,11,est_4_47,47.0,lavapies,Plaza de Lavapiés 7,40.40851,-3.7009,A,http://www.crtm.es,1.0,,Europe/Madrid,2
METRO,3,13,est_4_49,49.0,callao,Plaza del Callao 3,40.42014,-3.70566,A,http://www.crtm.es,1.0,,Europe/Madrid,2
METRO,3,14,est_4_50,50.0,plazaespana,Plaza de España 1,40.42342,-3.7112,A,http://www.crtm.es,1.0,,Europe/Madrid,2
METRO,3,15,est_4_51,51.0,venturarodriguez,Calle de la Princesa 22,40.42709,-3.7134099999999997,A,http://www.crtm.es,1.0,,Europe/Madrid,2
METRO,3,16,est_4_52,52.0,arguelles,Calle de Alberto Aguilera 72,40.430659999999996,-3.71596,A,http://www.crtm.es,1.0,,Europe/Madrid,0
METRO,4,0,est_4_52,52.0,arguelles,Calle de Alberto Aguilera 72,40.430659999999996,-3.71596,A,http://www.crtm.es,1.0,,Europe/Madrid,0
METRO,4,1,est_4_39,39.0,sanbernardo,Calle de San Bernardo 94,40.430009999999996,-3.70557,A,http://www.crtm.es,1.0,,Europe/Madrid,0
METRO,4,2,est_4_9,9.0,bilbao,Calle de Sagasta 2,40.42906,-3.7021800000000002,A,http://www.crtm.es,1.0,,Europe/Madrid,0
METRO,4,3,est_4_57,57.0,alonsomartinez,Plaza de Alonso Martínez 4,40.42772,-3.6959400000000002,A,http://www.crtm.es,1.0,,Europe/Madrid,0
METRO,4,4,est_4_58,58.0,colon,Plaza de Colón 2,40.42542,-3.69101,A,http://www.crtm.es,1.0,,Europe/Madrid,0
METRO,4,5,est_4_59,59.0,serrano,Calle de Goya 19,40.42543,-3.68663,A,http://www.crtm.es,1.0,,Europe/Madrid,0
METRO,4,6,est_4_60,60.0,velazquez,Calle de Núñez de Balboa 33,40.42503,-3.6829199999999997,A,http://www.crtm.es,1.0,,Europe/Madrid,0
METRO,4,7,est_4_30,30.0,goya,Calle de Alcalá 96,40.42455,-3.67591,A,http://www.crtm.es,1.0,,Europe/Madrid,2
METRO,4,8,est_4_62,62.0,lista,Calle del Conde de Peñalver 45,40.42917,-3.67541,A,http://www.crtm.es,1.0,,Europe/Madrid,0
METRO,4,9,est_4_63,63.0,diegoleon,Calle de Diego de León 69,40.43468,-3.67495,A,http://www.crtm.es,1.0,,Europe/Madrid,0
METRO,4,11,est_4_65,65.0,prosperidad,Plaza de la Prosperidad 4,40.44419,-3.6748199999999995,A,http://www.crtm.es,1.0,,Europe/Madrid,0
METRO,4,12,est_4_66,66.0,alfonsoxiii,Calle de López de Hoyos 190,40.44825,-3.66791,A,http://www.crtm.es,1.0,,Europe/Madrid,0
METRO,4,13,est_4_67,67.0,avenidapaz,Avda de Ramón y Cajal 107,40.453540000000004,-3.6611800000000003,A,http://www.crtm.es,1.0,,Europe/Madrid,0
METRO,4,14,est_4_68,68.0,arturosoria,Calle de Arturo Soria 172,40.45583,-3.6561800000000004,A,http://www.crtm.es,1.0,,Europe/Madrid,0
METRO,4,15,est_4_69,69.0,esperanza,Calle de Andorra 51,40.45945,-3.6458199999999996,A,http://www.crtm.es,1.0,,Europe/Madrid,0
METRO,4,16,est_4_70,70.0,canillas,Avda de Machupichu 64,40.463809999999995,-3.6356,A,http://www.crtm.es,1.0,,Europe/Madrid,2
METRO,4,17,est_4_71,71.0,marcristal,Gta del Mar de Cristal 1 B,40.469429999999996,-3.6383199999999998,A,http://www.crtm.es,1.0,,Europe/Madrid,2
METRO,4,18,est_4_72,72.0,sanlorenzo,Avda de la Barranquilla 9,40.474470000000004,-3.6395800000000005,A,http://www.crtm.es,1.0,,Europe/Madrid,2
METRO,4,19,est_4_73,73.0,parquesantamaria,Calle de Santa Virgilia 1,40.477109999999996,-3.6452400000000003,A,http://www.crtm.es,1.0,,Europe/Madrid,2
METRO,4,20,est_4_264,264.0,hortaleza,Calle del Capitán Cortés 4,40.47537,-3.65257,A,http://www.crtm.es,1.0,,Europe/Madrid,2
METRO,4,21,est_4_265,265.0,manoteras,Calle de Bacares 24,40.47687,-3.6629,A,http://www.crtm.es,1.0,,Europe/Madrid,2
METRO,4,22,est_4_263,263.0,pinarchamartin,Calle de Arturo Soria 330,40.480140000000006,-3.6668,A,http://www.crtm.es,1.0,,Europe/Madrid,2
METRO,5,0,est_4_252,252.0,alamedaosuna,Calle de la Corbeta 14,40.45779,-3.5875199999999996,A,http://www.crtm.es,1.0,,Europe/Madrid,2
METRO,5,1,est_4_253,253.0,capricho,Calle de Pinos de Osuna 15,40.45347,-3.59401,A,http://www.crtm.es,1.0,,Europe/Madrid,2
METRO,5,2,est_4_74,74.0,canillejas,Calle de Alcalá 631,40.44942,-3.60816,A,http://www.crtm.es,1.0,,Europe/Madrid,0
METRO,5,3,est_4_75,75.0,torrearias,Calle de Alcalá 557,40.443740000000005,-3.61699,A,http://www.crtm.es,1.0,,Europe/Madrid,0
METRO,5,4,est_4_76,76.0,suanzes,Calle de Alcalá 527,40.44085,-3.62684,A,http://www.crtm.es,1.0,,Europe/Madrid,0
METRO,5,5,est_4_77,77.0,ciudadlineal,Calle de Arturo Soria 2,40.43805,-3.63816,A,http://www.crtm.es,1.0,,Europe/Madrid,0
METRO,5,6,est_4_78,78.0,pueblonuevo,Calle de Alcalá 372,40.43569,-3.6428199999999995,A,http://www.crtm.es,1.0,,Europe/Madrid,0
METRO,5,7,est_4_79,79.0,quintana,Calle de la Virgen del Sagrario 2,40.43358,-3.64736,A,http://www.crtm.es,1.0,,Europe/Madrid,0
METRO,5,8,est_4_80,80.0,carmen,Calle de Raquel Méller 2,40.43189,-3.6575699999999998,A,http://www.crtm.es,1.0,,Europe/Madrid,0
METRO,5,9,est_4_28,28.0,ventas,Calle de Alcalá 204,40.43088,-3.6636599999999997,A,http://www.crtm.es,1.0,,Europe/Madrid,0
METRO,5,10,est_4_63,63.0,diegoleon,Calle de Diego de León 69,40.43468,-3.67495,A,http://www.crtm.es,1.0,,Europe/Madrid,0
METRO,5,11,est_4_83,83.0,nunezbalboa,Calle de Juan Bravo 20,40.43278,-3.68258,A,http://www.crtm.es,1.0,,Europe/Madrid,0
METRO,5,12,est_4_84,84.0,rubendario,Paseo de Eduardo Dato 33,40.43316,-3.68954,A,http://www.crtm.es,1.0,,Europe/Madrid,0
METRO,5,13,est_4_57,57.0,alonsomartinez,Plaza de Alonso Martínez 4,40.42772,-3.6959400000000002,A,http://www.crtm.es,1.0,,Europe/Madrid,0
METRO,5,14,est_4_86,86.0,chueca,Plaza de Chueca 7,40.42293,-3.6976199999999997,A,http://www.crtm.es,1.0,,Europe/Madrid,0
METRO,5,15,est_4_11,11.0,granvia,Calle   Gran Vía 23,40.42001,-3.7018,A,http://www.crtm.es,1.0,,Europe/Madrid,0
METRO,5,16,est_4_49,49.0,callao,Plaza del Callao 3,40.42014,-3.70566,A,http://www.crtm.es,1.0,,Europe/Madrid,2
METRO,5,17,est_4_36,36.0,opera,Plaza de Isabel II 9,40.41809,-3.7094199999999997,A,http://www.crtm.es,1.0,,Europe/Madrid,0
METRO,5,18,est_4_90,90.0,latina,Calle de San Millán 5,40.41128,-3.70816,A,http://www.crtm.es,1.0,,Europe/Madrid,0
METRO,5,19,est_4_91,91.0,puertatoledo,Gta de Puerta de Toledo 1,40.40704,-3.71105,A,http://www.crtm.es,1.0,,Europe/Madrid,0
METRO,5,21,est_4_93,93.0,piramides,Paseo del Doctor Vallejo Nágera 37,40.4026,-3.71138,A,http://www.crtm.es,1.0,,Europe/Madrid,2
METRO,5,22,est_4_94,94.0,marquesvadillo,Gta del Marqués de Vadillo 4,40.39736,-3.71596,A,http://www.crtm.es,1.0,,Europe/Madrid,0
METRO,5,23,est_4_95,95.0,urgel,Calle del Camino Viejo de Leganés 1,40.39335,-3.7236,A,http://www.crtm.es,1.0,,Europe/Madrid,0
METRO,5,24,est_4_96,96.0,oporto,Gta del Valle de Oro 13,40.388459999999995,-3.7313199999999997,A,http://www.crtm.es,1.0,,Europe/Madrid,0
METRO,5,25,est_4_97,97.0,vistaalegre,Calle de la Oca 74,40.38885,-3.73982,A,http://www.crtm.es,1.0,,Europe/Madrid,0
METRO,5,26,est_4_98,98.0,carabanchel,Gta del Ejército 1,40.38783,-3.7448699999999997,A,http://www.crtm.es,1.0,,Europe/Madrid,0
METRO,5,27,est_4_99,99.0,eugeniamontijo,Calle de Ocaña 86,40.38439,-3.75121,A,http://www.crtm.es,1.0,,Europe/Madrid,2
METRO,5,28,est_90_1,1.0,aluche,Calle de Valmojado 293,40.38563,-3.76085,A,http://www.crtm.es,1.0,,Europe/Madrid,0
METRO,5,29,est_4_101,101.0,empalme,Calle de Tembleque 105,40.390570000000004,-3.76535,A,http://www.crtm.es,1.0,,Europe/Madrid,2
METRO,5,30,est_4_102,102.0,campamento,Avda del Padre Piquer 7,40.39481,-3.76813,A,http://www.crtm.es,1.0,,Europe/Madrid,0
METRO,5,31,est_4_103,103.0,casacampo,Ctra del Zoo 1,40.403240000000004,-3.7610099999999997,A,http://www.crtm.es,1.0,,Europe/Madrid,2
METRO,6,0,est_4_104,104.0,laguna,Calle de Cuart de Poblet 1,40.399229999999996,-3.7442900000000003,A,http://www.crtm.es,1.0,,Europe/Madrid,0
METRO,6,1,est_4_105,105.0,carpetana,Calle   Vía Carpetana 141,40.3927,-3.74099,A,http://www.crtm.es,1.0,,Europe/Madrid,0
METRO,6,2,est_4_96,96.0,oporto,Gta del Valle de Oro 13,40.388459999999995,-3.7313199999999997,A,http://www.crtm.es,1.0,,Europe/Madrid,0
METRO,6,3,est_4_107,107.0,opanel,Calle del Valle de Oro 50 A,40.3869,-3.7231300000000003,A,http://www.crtm.es,1.0,,Europe/Madrid,0
METRO,6,5,est_4_109,109.0,usera,Calle de Amparo Usera 44,40.3871,-3.7069,A,http://www.crtm.es,1.0,,Europe/Madrid,0
METRO,6,6,est_4_43,43.0,legazpi,Plaza de Legazpi 2 B,40.39116,-3.6951099999999997,A,http://www.crtm.es,1.0,,Europe/Madrid,2
METRO,6,7,est_4_259,259.0,arganzuelaplanetario,Calle del Bronce 1 A,40.3931,-3.6886400000000004,A,http://www.crtm.es,1.0,,Europe/Madrid,2
METRO,6,10,est_4_18,18.0,pacifico,Avda de la Ciudad de Barcelona 79,40.40126,-3.6751400000000003,A,http://www.crtm.es,1.0,,Europe/Madrid,0
METRO,6,11,est_4_113,113.0,condecasal,Plaza del Conde de Casal 3,40.40697,-3.67041,A,http://www.crtm.es,1.0,,Europe/Madrid,2
METRO,6,12,est_4_114,114.0,sainzbaranda,Calle del Doctor Esquerdo 103,40.41507,-3.66951,A,http://www.crtm.es,1.0,,Europe/Madrid,0
METRO,6,13,est_4_115,115.0,odonnell,Calle del Doctor Esquerdo 47,40.42289,-3.6686,A,http://www.crtm.es,1.0,,Europe/Madrid,0
METRO,6,14,est_4_29,29.0,manuelbecerra,Plaza de Manuel Becerra 1,40.4279,-3.66926,A,http://www.crtm.es,1.0,,Europe/Madrid,0
METRO,6,15,est_4_63,63.0,diegoleon,Calle de Diego de León 69,40.43468,-3.67495,A,http://www.crtm.es,1.0,,Europe/Madrid,0
METRO,6,17,est_4_119,119.0,republicaargentina,Calle de Joaquín Costa 24,40.44379,-3.6840599999999997,A,http://www.crtm.es,1.0,,Europe/Madrid,0
METRO,6,18,est_90_71,71.0,nuevosministerios,Calle de Raimundo Fernández Villaverde 67,40.44662,-3.69246,A,http://www.crtm.es,1.0,,Europe/Madrid,0
METRO,6,19,est_4_6,6.0,cuatrocaminos,Gta de Cuatro Caminos 2,40.44697,-3.7039699999999995,A,http://www.crtm.es,1.0,,Europe/Madrid,2
METRO,6,20,est_4_122,122.0,guzmanbueno,Calle de Guzmán el Bueno 118,40.44637,-3.7122900000000003,A,http://www.crtm.es,1.0,,Europe/Madrid,2
METRO,6,21,est_4_123,123.0,vicentealeixandre,Avda de Gregorio del Amo 4,40.44644,-3.7194300000000005,A,http://www.crtm.es,1.0,,Europe/Madrid,0
METRO,6,22,est_4_124,124.0,ciudaduniversitaria,Avda  Complutense 1,40.44356,-3.72678,A,http://www.crtm.es,1.0,,Europe/Madrid,2
METRO,6,24,est_4_52,52.0,arguelles,Calle de Alberto Aguilera 72,40.430659999999996,-3.71596,A,http://www.crtm.es,1.0,,Europe/Madrid,0
METRO,6,26,est_4_128,128.0,puertaangel,Paseo de Extremadura 26,40.4139,-3.72724,A,http://www.crtm.es,1.0,,Europe/Madrid,0
METRO,6,27,est_4_129,129.0,altoextremadura,Paseo de Extremadura 154,40.409929999999996,-3.73894,A,http://www.crtm.es,1.0,,Europe/Madrid,0
METRO,6,28,est_4_130,130.0,lucero,Calle de las Higueras 47,40.4051,-3.74534,A,http://www.crtm.es,1.0,,Europe/Madrid,2
METRO,7,0,est_4_296,296.0,hospitalhenares,Cmno del Tiro SN,40.417609999999996,-3.53453,B1,http://www.crtm.es,1.0,,Europe/Madrid,2
METRO,7,1,est_4_292,292.0,henares,Avda de Algorta 12,40.417770000000004,-3.5271800000000004,B1,http://www.crtm.es,1.0,,Europe/Madrid,2
METRO,7,2,est_4_291,291.0,jarama,Plaza   Guernica 1,40.42295,-3.52549,B1,http://www.crtm.es,1.0,,Europe/Madrid,2
METRO,7,3,est_4_290,290.0,sanfernando,Calle de Gonzalo de Córdoba 24,40.424409999999995,-3.5354099999999997,B1,http://www.crtm.es,1.0,,Europe/Madrid,2
METRO,7,4,est_4_289,289.0,rambla,Calle   Honduras 2,40.42514,-3.5479199999999995,B1,http://www.crtm.es,1.0,,Europe/Madrid,2
METRO,7,5,est_4_288,288.0,cosladacentral,Calle del Doctor Fleming 41,40.42374,-3.5611900000000003,B1,http://www.crtm.es,1.0,,Europe/Madrid,2
METRO,7,6,est_4_287,287.0,barriopuerto,Avda de España 8,40.4225,-3.5691900000000003,B1,http://www.crtm.es,1.0,,Europe/Madrid,2
METRO,7,7,est_4_286,286.0,estadiometropolitano,Avda de Arcentales 28,40.43339,-3.60015,A,http://www.crtm.es,1.0,,Europe/Madrid,2
METRO,7,8,est_4_132,132.0,musas,,40.432990000000004,-3.60788,A,http://www.crtm.es,1.0,,Europe/Madrid,0
METRO,7,9,est_4_133,133.0,sanblas,,40.42799,-3.6154699999999997,A,http://www.crtm.es,1.0,,Europe/Madrid,0
METRO,7,10,est_4_134,134.0,simancas,,40.42799,-3.62572,A,http://www.crtm.es,1.0,,Europe/Madrid,0
METRO,7,11,est_4_135,135.0,garcianoblejas,,40.42842,-3.6333,A,http://www.crtm.es,1.0,,Europe/Madrid,0
METRO,7,12,est_4_136,136.0,ascao,,40.430209999999995,-3.64106,A,http://www.crtm.es,1.0,,Europe/Madrid,0
METRO,7,13,est_4_78,78.0,pueblonuevo,Calle de Alcalá 372,40.43569,-3.6428199999999995,A,http://www.crtm.es,1.0,,Europe/Madrid,0
METRO,7,14,est_4_138,138.0,barrioconcepcion,,40.4391,-3.6519999999999997,A,http://www.crtm.es,1.0,,Europe/Madrid,0
METRO,7,15,est_4_139,139.0,parqueavenidas,,40.43945,-3.6629699999999996,A,http://www.crtm.es,1.0,,Europe/Madrid,0
METRO,7,16,est_4_140,140.0,cartagena,,40.43934,-3.67215,A,http://www.crtm.es,1.0,,Europe/Madrid,0
METRO,7,18,est_4_142,142.0,gregoriomaranon,,40.43825,-3.6914800000000003,A,http://www.crtm.es,1.0,,Europe/Madrid,2
METRO,7,19,est_4_143,143.0,alonsocano,,40.43838,-3.69925,A,http://www.crtm.es,1.0,,Europe/Madrid,2
METRO,7,20,est_4_41,41.0,canal,Calle de Bravo Murillo 40,40.43841,-3.70433,A,http://www.crtm.es,1.0,,Europe/Madrid,2
METRO,7,21,est_4_145,145.0,islasfilipinas,,40.43907,-3.7137300000000004,A,http://www.crtm.es,1.0,,Europe/Madrid,2
METRO,7,22,est_4_122,122.0,guzmanbueno,Calle de Guzmán el Bueno 118,40.44637,-3.7122900000000003,A,http://www.crtm.es,1.0,,Europe/Madrid,2
METRO,7,23,est_4_147,147.0,francosrodriguez,,40.45648,-3.71239,A,http://www.crtm.es,1.0,,Europe/Madrid,2
METRO,7,24,est_4_148,148.0,valdezarza,,40.46482,-3.7159699999999996,A,http://www.crtm.es,1.0,,Europe/Madrid,2
METRO,7,25,est_4_149,149.0,antoniomachado,,40.47022,-3.71769,A,http://www.crtm.es,1.0,,Europe/Madrid,2
METRO,7,26,est_4_150,150.0,penagrande,,40.47592,-3.71582,A,http://www.crtm.es,1.0,,Europe/Madrid,0
METRO,7,27,est_4_151,151.0,avenidailustracion,,40.4801,-3.7184,A,http://www.crtm.es,1.0,,Europe/Madrid,2
METRO,7,28,est_4_152,152.0,lacoma,,40.48502,-3.72305,A,http://www.crtm.es,1.0,,Europe/Madrid,2
METRO,7,29,est_4_153,153.0,arroyofresno,,40.4909,-3.7260400000000002,A,http://www.crtm.es,1.0,,Europe/Madrid,0
METRO,7,30,est_4_154,154.0,pitis,,40.49511,-3.72589,A,http://www.crtm.es,1.0,,Europe/Madrid,2
METRO,8,0,est_90_71,71.0,nuevosministerios,Calle de Raimundo Fernández Villaverde 67,40.44662,-3.69246,A,http://www.crtm.es,1.0,,Europe/Madrid,0
METRO,8,1,est_4_156,156.0,colombia,Calle del Príncipe de Vergara 258,40.456340000000004,-3.6768199999999998,A,http://www.crtm.es,1.0,,Europe/Madrid,2
METRO,8,2,est_4_258,258.0,pinarrey,Avda de la Gran Vía de Hortaleza 47,40.468,-3.6486699999999996,A,http://www.crtm.es,1.0,,Europe/Madrid,2
METRO,8,3,est_4_71,71.0,marcristal,Gta del Mar de Cristal 1 B,40.469429999999996,-3.6383199999999998,A,http://www.crtm.es,1.0,,Europe/Madrid,2
METRO,8,4,est_4_158,158.0,feriamadrid,Avda del Partenón 5,40.46389,-3.6162,A,http://www.crtm.es,1.0,,Europe/Madrid,2
METRO,8,5,est_90_34,34.0,aeropuertot1t2t3,Avda de la Hispanidad SN,40.46864,-3.56965,A,http://www.crtm.es,1.0,,Europe/Madrid,0
METRO,8,6,est_4_160,160.0,barajas,Cmno  Viejo de Hortaleza 10,40.475770000000004,-3.58253,A,http://www.crtm.es,1.0,,Europe/Madrid,2
METRO,8,7,est_90_33,33.0,aeropuertot4,Ctra de Alcobendas a Barajas SN,40.49176,-3.5935599999999996,A,http://www.crtm.es,1.0,,Europe/Madrid,0
METRO,9,0,est_4_345,345.0,pacolucia,Calle de Monasterio de Las Huelgas 5,40.49965,-3.70908,,http://www.crtm.es,1.0,,Europe/Madrid,0
METRO,9,1,est_4_326,326.0,mirasierra,Avda del Ventisquero de la Condesa 28,40.4911,-3.71634,,http://www.crtm.es,1.0,,Europe/Madrid,0
METRO,9,2,est_4_161,161.0,herreraoria,Calle de Valencia de Don Juan 1,40.48466,-3.7075099999999996,A,http://www.crtm.es,1.0,,Europe/Madrid,0
METRO,9,3,est_4_162,162.0,barriopilar,Calle de Ginzo de Limia 22,40.476890000000004,-3.70316,A,http://www.crtm.es,1.0,,Europe/Madrid,0
METRO,9,4,est_4_163,163.0,ventilla,Avda de Asturias 39,40.469440000000006,-3.6958800000000003,A,http://www.crtm.es,1.0,,Europe/Madrid,0
METRO,9,6,est_4_165,165.0,duquepastrana,Calle de Mateo Inurria 41,40.46763,-3.6791699999999996,A,http://www.crtm.es,1.0,,Europe/Madrid,0
METRO,9,7,est_4_166,166.0,pioxii,Avda de Pío XII 27,40.463,-3.67579,A,http://www.crtm.es,1.0,,Europe/Madrid,0
METRO,9,8,est_4_156,156.0,colombia,Calle del Príncipe de Vergara 258,40.456340000000004,-3.6768199999999998,A,http://www.crtm.es,1.0,,Europe/Madrid,2
METRO,9,9,est_4_168,168.0,conchaespina,Calle del Príncipe de Vergara 210,40.45145,-3.6773800000000003,A,http://www.crtm.es,1.0,,Europe/Madrid,0
METRO,9,10,est_4_169,169.0,cruzrayo,Calle del Príncipe de Vergara 138,40.44427,-3.67821,A,http://www.crtm.es,1.0,,Europe/Madrid,0
METRO,9,12,est_4_83,83.0,nunezbalboa,Calle de Juan Bravo 20,40.43278,-3.68258,A,http://www.crtm.es,1.0,,Europe/Madrid,0
METRO,9,13,est_4_31,31.0,principevergara,Calle de Alcalá 123,40.422940000000004,-3.6801199999999996,A,http://www.crtm.es,1.0,,Europe/Madrid,0
METRO,9,14,est_4_173,173.0,ibiza,Calle de Ibiza 1,40.41839,-3.67858,A,http://www.crtm.es,1.0,,Europe/Madrid,0
METRO,9,15,est_4_114,114.0,sainzbaranda,Calle del Doctor Esquerdo 103,40.41507,-3.66951,A,http://www.crtm.es,1.0,,Europe/Madrid,0
METRO,9,16,est_4_175,175.0,estrella,Calle del Camino de los Vinateros 1,40.41147,-3.6617900000000003,A,http://www.crtm.es,1.0,,Europe/Madrid,0
METRO,9,17,est_4_176,176.0,vinateros,Calle del Camino de los Vinateros 70,40.41024,-3.6527300000000005,A,http://www.crtm.es,1.0,,Europe/Madrid,0
METRO,9,18,est_4_177,177.0,artilleros,Calle del Camino de los Vinateros 210,40.40522,-3.64181,A,http://www.crtm.es,1.0,,Europe/Madrid,0
METRO,9,19,est_4_178,178.0,pavones,Calle de la Hacienda de Pavones 342,40.40051,-3.6351199999999997,A,http://www.crtm.es,1.0,,Europe/Madrid,0
METRO,9,20,est_4_179,179.0,valdebernardo,Bulv de Indalecio Prieto 26,40.40005,-3.6215599999999997,A,http://www.crtm.es,1.0,,Europe/Madrid,2
METRO,9,21,est_4_180,180.0,vicalvaro,Calle de San Cipriano 11,40.40422,-3.60886,A,http://www.crtm.es,1.0,,Europe/Madrid,2
METRO,9,22,est_4_181,181.0,sancipriano,Calle de San Cipriano 68,40.40381,-3.60239,A,http://www.crtm.es,1.0,,Europe/Madrid,2
METRO,9,23,est_4_182,182.0,puertaarganda,Calle de San Cipriano 85,40.40132,-3.5959800000000004,A,http://www.crtm.es,1.0,,Europe/Madrid,2
METRO,9,24,est_4_183,183.0,rivasurbanizaciones,Plaza de Galicia 5,40.36677,-3.54728,B1,http://www.crtm.es,1.0,,Europe/Madrid,2
METRO,9,25,est_4_300,300.0,rivasfutura,Calle   Concepción Arenal 1,40.34134,-3.5247900000000003,B1,http://www.crtm.es,1.0,,Europe/Madrid,2
METRO,9,26,est_4_184,184.0,rivasvaciamadrid,Calle   Areneros 6,40.32837,-3.5206,B2,http://www.crtm.es,1.0,,Europe/Madrid,2
METRO,9,27,est_4_185,185.0,poveda,Parcela   9017 Polígono 1 S/N,40.31902,-3.47745,B3,http://www.crtm.es,1.0,,Europe/Madrid,2
METRO,9,28,est_4_186,186.0,argandarey,Paseo de la Estación 37,40.303670000000004,-3.44752,B3,http://www.crtm.es,1.0,,Europe/Madrid,2
METRO,10,0,est_4_284,284.0,hospitalinfantasofia,Paseo   Europa 11,40.55977,-3.61145,B1,http://www.crtm.es,1.0,,Europe/Madrid,2
METRO,10,1,est_4_283,283.0,reyescatolicos,Avda de la Plaza de Toros 7,40.55037,-3.6234,B1,http://www.crtm.es,1.0,,Europe/Madrid,2
METRO,10,2,est_4_282,282.0,baunatal,Avda de las Lomas del Rey 2,40.55442,-3.63513,B1,http://www.crtm.es,1.0,,Europe/Madrid,2
METRO,10,3,est_4_281,281.0,manuelfalla,Calle   Manuel de Falla 59,40.55048,-3.6468800000000003,B1,http://www.crtm.es,1.0,,Europe/Madrid,2
METRO,10,4,est_4_280,280.0,marquesvaldavia,Calle del Marqués de la Valdavia 21,40.54102,-3.6373800000000003,B1,http://www.crtm.es,1.0,,Europe/Madrid,2
METRO,10,5,est_4_279,279.0,moraleja,Avda de la Ermita 5,40.53196,-3.63556,B1,http://www.crtm.es,1.0,,Europe/Madrid,2
METRO,10,6,est_4_278,278.0,granja,Calle de Sepúlveda 1,40.5276,-3.6585900000000002,B1,http://www.crtm.es,1.0,,Europe/Madrid,2
METRO,10,7,est_4_277,277.0,rondacomunicacion,Ronda de la Comunicación 22,40.51553,-3.6627699999999996,A,http://www.crtm.es,1.0,,Europe/Madrid,2
METRO,10,8,est_4_276,276.0,tablas,Calle de Palas de Rey 30,40.50833,-3.6694400000000003,A,http://www.crtm.es,1.0,,Europe/Madrid,2
METRO,10,9,est_4_275,275.0,montecarmelo,Avda de Monasterio de Silos 63 A,40.50525,-3.69575,A,http://www.crtm.es,1.0,,Europe/Madrid,2
METRO,10,10,est_4_274,274.0,tresolivos,Acces   M-607 SN,40.5012,-3.6952,A,http://www.crtm.es,1.0,,Europe/Madrid,2
METRO,10,11,est_4_187,187.0,fuencarral,Calle de la Fuente Chica 21,40.495090000000005,-3.6928300000000003,A,http://www.crtm.es,1.0,,Europe/Madrid,0
METRO,10,12,est_4_188,188.0,begona,Paseo de la Castellana 261,40.48041,-3.68585,A,http://www.crtm.es,1.0,,Europe/Madrid,0
METRO,10,13,est_90_25,25.0,chamartin,Calle de Agustín de Foxá 40,40.4721,-3.68269,A,http://www.crtm.es,1.0,,Europe/Madrid,0
METRO,10,15,est_4_191,191.0,cuzco,Paseo de la Castellana 162,40.458420000000004,-3.68985,A,http://www.crtm.es,1.0,,Europe/Madrid,0
METRO,10,16,est_4_192,192.0,santiagobernabeu,Paseo de la Castellana 97,40.45159,-3.69038,A,http://www.crtm.es,1.0,,Europe/Madrid,0
METRO,10,17,est_90_71,71.0,nuevosministerios,Calle de Raimundo Fernández Villaverde 67,40.44662,-3.69246,A,http://www.crtm.es,1.0,,Europe/Madrid,0
METRO,10,18,est_4_142,142.0,gregoriomaranon,,40.43825,-3.6914800000000003,A,http://www.crtm.es,1.0,,Europe/Madrid,2
METRO,10,19,est_4_57,57.0,alonsomartinez,Plaza de Alonso Martínez 4,40.42772,-3.6959400000000002,A,http://www.crtm.es,1.0,,Europe/Madrid,0
METRO,10,20,est_4_10,10.0,tribunal,Calle de Fuencarral 81,40.426190000000005,-3.7011,A,http://www.crtm.es,1.0,,Europe/Madrid,0
METRO,10,21,est_4_50,50.0,plazaespana,Plaza de España 1,40.42342,-3.7112,A,http://www.crtm.es,1.0,,Europe/Madrid,2
METRO,10,23,est_4_199,199.0,lago,Ronda del Lago 3,40.41641,-3.7356300000000005,A,http://www.crtm.es,1.0,,Europe/Madrid,2
METRO,10,24,est_4_200,200.0,batan,Paseo de la Venta 1,40.40786,-3.75311,A,http://www.crtm.es,1.0,,Europe/Madrid,2
METRO,10,25,est_4_103,103.0,casacampo,Ctra del Zoo 1,40.403240000000004,-3.7610099999999997,A,http://www.crtm.es,1.0,,Europe/Madrid,2
METRO,10,26,est_4_202,202.0,coloniajardin,Calle de Arenas de San Pedro 2,40.39698,-3.7746199999999996,A,http://www.crtm.es,1.0,,Europe/Madrid,2
METRO,10,27,est_4_257,257.0,aviacionespanola,Paseo de Extremadura 463,40.38364,-3.7839199999999997,A,http://www.crtm.es,1.0,,Europe/Madrid,2
METRO,10,28,est_4_203,203.0,cuatrovientos,Col   Militar de Cuatro Vientos 6 B,40.37771,-3.79152,A,http://www.crtm.es,1.0,,Europe/Madrid,2
METRO,10,29,est_4_204,204.0,joaquinvilumbrales,Avda de la Libertad 13,40.34985,-3.8072,B1,http://www.crtm.es,1.0,,Europe/Madrid,2
METRO,10,30,est_4_205,205.0,puertasur,Avda de la Libertad 2,40.345240000000004,-3.8121099999999997,B1,http://www.crtm.es,1.0,,Europe/Madrid,2
METRO,11,1,est_4_207,207.0,abrantes,Avda de Abrantes 77,40.380829999999996,-3.7279,A,http://www.crtm.es,1.0,,Europe/Madrid,2
METRO,11,2,est_4_208,208.0,panbendito,Avda de Abrantes 289,40.37587,-3.7341699999999998,A,http://www.crtm.es,1.0,,Europe/Madrid,2
METRO,11,3,est_4_254,254.0,sanfrancisco,Avda de los Poblados 102,40.3736,-3.7391,A,http://www.crtm.es,1.0,,Europe/Madrid,2
METRO,11,4,est_4_255,255.0,carabanchelalto,Avda de Carabanchel Alto 40,40.372,-3.7519099999999996,A,http://www.crtm.es,1.0,,Europe/Madrid,2
METRO,11,5,est_4_256,256.0,peseta,Calle de Salvador Allende 3,40.36422,-3.7569,A,http://www.crtm.es,1.0,,Europe/Madrid,2
METRO,11,6,est_4_305,305.0,fortuna,Calle   San José 40,40.35795,-3.7778300000000002,,http://www.crtm.es,1.0,,Europe/Madrid,0
METRO,12,0,est_4_205,205.0,puertasur,Avda de la Libertad 2,40.345240000000004,-3.8121099999999997,B1,http://www.crtm.es,1.0,,Europe/Madrid,2
METRO,12,1,est_4_210,210.0,parquelisboa,Calle de Porto Lagos 7,40.34969,-3.8212,B1,http://www.crtm.es,1.0,,Europe/Madrid,2
METRO,12,2,est_4_211,211.0,alcorconcentral,Avda de Móstoles 12,40.35008,-3.83178,B1,http://www.crtm.es,1.0,,Europe/Madrid,2
METRO,12,3,est_4_212,212.0,parqueoeste,Calle de Estambul 5,40.345890000000004,-3.84934,B1,http://www.crtm.es,1.0,,Europe/Madrid,2
METRO,12,4,est_4_213,213.0,universidadreyjuancarlos,Calle   Tulipán 2,40.33512,-3.87218,B2,http://www.crtm.es,1.0,,Europe/Madrid,2
METRO,12,5,est_4_214,214.0,mostolescentral,Paseo de la Estación 13,40.3285,-3.86354,B2,http://www.crtm.es,1.0,,Europe/Madrid,2
METRO,12,6,est_4_215,215.0,pradillo,Calle de Agustina de Aragón 23,40.32168,-3.86489,B2,http://www.crtm.es,1.0,,Europe/Madrid,2
METRO,12,7,est_4_216,216.0,hospitalmostoles,Calle del Río Sella 10,40.316520000000004,-3.87471,B2,http://www.crtm.es,1.0,,Europe/Madrid,2
METRO,12,8,est_4_217,217.0,manuelamalasana,Plaza   Sol de 9001 SN,40.30903,-3.8640199999999996,B2,http://www.crtm.es,1.0,,Europe/Madrid,2
METRO,12,9,est_4_218,218.0,loranca,Calle de la Alegría 4,40.29681,-3.83768,B2,http://www.crtm.es,1.0,,Europe/Madrid,2
METRO,12,10,est_4_219,219.0,hospitalfuenlabrada,Cmno del Molino 3,40.285759999999996,-3.81642,B2,http://www.crtm.es,1.0,,Europe/Madrid,2
METRO,12,11,est_4_220,220.0,parqueeuropa,Calle de Francia 34,40.28518,-3.80632,B2,http://www.crtm.es,1.0,,Europe/Madrid,2
METRO,12,12,est_4_221,221.0,fuenlabradacentral,Calle de la Vía SN,40.28268,-3.79891,B2,http://www.crtm.es,1.0,,Europe/Madrid,2
METRO,12,13,est_4_222,222.0,parque,Calle de Venezuela 2,40.286840000000005,-3.7869699999999997,B2,http://www.crtm.es,1.0,,Europe/Madrid,2
METRO,12,14,est_4_223,223.0,arroyoculebro,Paseo de Juan José Rosón 1,40.288740000000004,-3.75682,B1,http://www.crtm.es,1.0,,Europe/Madrid,2
METRO,12,15,est_4_224,224.0,conservatorio,Avda de las Arcas del Agua 5,40.293240000000004,-3.7457599999999998,B1,http://www.crtm.es,1.0,,Europe/Madrid,2
METRO,12,16,est_4_225,225.0,alonsomendoza,Calle del Greco 6,40.30081,-3.73664,B1,http://www.crtm.es,1.0,,Europe/Madrid,2
METRO,12,17,est_4_226,226.0,getafecentral,Calle  Ferrocarril 2,40.30993,-3.73403,B1,http://www.crtm.es,1.0,,Europe/Madrid,2
METRO,12,18,est_4_227,227.0,juancierva,Avda de España 20,40.3118,-3.72224,B1,http://www.crtm.es,1.0,,Europe/Madrid,2
METRO,12,19,est_4_228,228.0,casar,Avda del Casar 2,40.31862,-3.70985,B1,http://www.crtm.es,1.0,,Europe/Madrid,2
METRO,12,20,est_4_229,229.0,espartales,Avda   Rigoberta Menchú 3,40.32423,-3.7182,B1,http://www.crtm.es,1.0,,Europe/Madrid,2
METRO,12,21,est_4_230,230.0,bercial,Avda   Comandante José Manuel Ripollés 4,40.32907,-3.7296300000000002,B1,http://www.crtm.es,1.0,,Europe/Madrid,2
METRO,12,22,est_4_231,231.0,carrascal,Avda   Rey Juan Carlos I 85,40.33664,-3.7401800000000005,B1,http://www.crtm.es,1.0,,Europe/Madrid,2
METRO,12,23,est_4_232,232.0,julianbesteiro,Avda   Rey Juan Carlos I 23 A,40.33475,-3.7526599999999997,B1,http://www.crtm.es,1.0,,Europe/Madrid,2
METRO,12,24,est_4_233,233.0,casareloj,Avda   Gibraltar 11,40.3266,-3.7594199999999995,B1,http://www.crtm.es,1.0,,Europe/Madrid,2
METRO,12,25,est_4_234,234.0,hospitalseveroochoa,Avda   Orellana 3,40.32177,-3.7679699999999996,B1,http://www.crtm.es,1.0,,Europe/Madrid,2
METRO,12,26,est_4_235,235.0,leganescentral,Calle  Virgen del Camino 1,40.328990000000005,-3.7715400000000003,B1,http://www.crtm.es,1.0,,Europe/Madrid,2
METRO,12,27,est_4_236,236.0,sannicasio,Avda   Mar Mediterráneo SN,40.33616,-3.77587,B1,http://www.crtm.es,1.0,,Europe/Madrid,2
METRO,R,0,est_4_36,36.0,opera,Plaza de Isabel II 9,40.41809,-3.7094199999999997,A,http://www.crtm.es,1.0,,Europe/Madrid,0
ML,1,0,est_10_1,1.0,pinarchamartin,,40.480140000000006,-3.66684,A,http://www.crtm.es,1.0,,Europe/Madrid,2
ML,1,1,est_10_2,2.0,fuentemora,,40.48482,-3.66325,A,http://www.crtm.es,1.0,,Europe/Madrid,2
ML,1,2,est_10_3,3.0,virgencortijo,,40.48734,-3.6609800000000003,A,http://www.crtm.es,1.0,,Europe/Madrid,2
ML,1,3,est_10_4,4.0,antoniosaura,,40.485459999999996,-3.6535300000000004,A,http://www.crtm.es,1.0,,Europe/Madrid,2
ML,1,4,est_10_5,5.0,alvarezvillaamil,,40.48905,-3.65136,A,http://www.crtm.es,1.0,,Europe/Madrid,2
ML,1,5,est_10_6,6.0,blascoibanez,,40.49368,-3.65584,A,http://www.crtm.es,1.0,,Europe/Madrid,2
ML,1,6,est_10_7,7.0,mariatudor,,40.497170000000004,-3.65889,A,http://www.crtm.es,1.0,,Europe/Madrid,2
ML,1,7,est_10_8,8.0,palasrey,,40.50544,-3.6650699999999996,A,http://www.crtm.es,1.0,,Europe/Madrid,2
ML,1,8,est_10_9,9.0,tablas,,40.50824,-3.66932,A,http://www.crtm.es,1.0,,Europe/Madrid,2
ML,2,0,est_10_10,10.0,coloniajardin,,40.39698,-3.7745599999999997,A,http://www.crtm.es,1.0,,Europe/Madrid,2
ML,2,4,est_10_14,14.0,somosaguassur,,40.41536,-3.7925199999999997,B1,http://www.crtm.es,1.0,,Europe/Madrid,2
ML,2,10,est_10_21,21.0,avenidaeuropa,,40.43931,-3.79305,B1,http://www.crtm.es,1.0,,Europe/Madrid,2
ML,2,11,est_10_22,22.0,berna,,40.44487,-3.7912,B1,http://www.crtm.es,1.0,,Europe/Madrid,2
ML,3,0,est_10_10,10.0,coloniajardin,,40.39698,-3.7745599999999997,A,http://www.crtm.es,1.0,,Europe/Madrid,2
ML,3,6,est_10_29,29.0,monteprincipe,,40.39792,-3.8358,B1,http://www.crtm.es,1.0,,Europe/Madrid,2
CR,C-1,6,est_90_71,71.0,nuevosministerios,Calle de Raimundo Fernández Villaverde 67,40.44662,-3.69246,A,http://www.crtm.es,1.0,,Europe/Madrid,0
CR,C-1,7,est_90_25,25.0,chamartin,Calle de Agustín de Foxá 40,40.4721,-3.68269,A,http://www.crtm.es,1.0,,Europe/Madrid,0
CR,C-1,10,est_90_33,33.0,aeropuertot4,Ctra de Alcobendas a Barajas SN,40.49176,-3.5935599999999996,A,http://www.crtm.es,1.0,,Europe/Madrid,0
CR,C-2,17,est_90_71,71.0,nuevosministerios,Calle de Raimundo Fernández Villaverde 67,40.44662,-3.69246,A,http://www.crtm.es,1.0,,Europe/Madrid,0
CR,C-2,18,est_90_25,25.0,chamartin,Calle de Agustín de Foxá 40,40.4721,-3.68269,A,http://www.crtm.es,1.0,,Europe/Madrid,0
CR,C-3,11,est_90_71,71.0,nuevosministerios,Calle de Raimundo Fernández Villaverde 67,40.44662,-3.69246,A,http://www.crtm.es,1.0,,Europe/Madrid,0
CR,C-3,12,est_90_25,25.0,chamartin,Calle de Agustín de Foxá 40,40.4721,-3.68269,A,http://www.crtm.es,1.0,,Europe/Madrid,0
CR,C-3a,11,est_90_71,71.0,nuevosministerios,Calle de Raimundo Fernández Villaverde 67,40.44662,-3.69246,A,http://www.crtm.es,1.0,,Europe/Madrid,0
CR,C-3a,12,est_90_25,25.0,chamartin,Calle de Agustín de Foxá 40,40.4721,-3.68269,A,http://www.crtm.es,1.0,,Europe/Madrid,0
CR,C-4a,8,est_90_71,71.0,nuevosministerios,Calle de Raimundo Fernández Villaverde 67,40.44662,-3.69246,A,http://www.crtm.es,1.0,,Europe/Madrid,0
CR,C-4a,9,est_90_25,25.0,chamartin,Calle de Agustín de Foxá 40,40.4721,-3.68269,A,http://www.crtm.es,1.0,,Europe/Madrid,0
CR,C-4b,8,est_90_71,71.0,nuevosministerios,Calle de Raimundo Fernández Villaverde 67,40.44662,-3.69246,A,http://www.crtm.es,1.0,,Europe/Madrid,0
CR,C-4b,9,est_90_25,25.0,chamartin,Calle de Agustín de Foxá 40,40.4721,-3.68269,A,http://www.crtm.es,1.0,,Europe/Madrid,0
CR,C-5,8,est_90_1,1.0,aluche,Calle de Valmojado 293,40.38563,-3.76085,A,http://www.crtm.es,1.0,,Europe/Madrid,0
CR,C-7,13,est_90_71,71.0,nuevosministerios,Calle de Raimundo Fernández Villaverde 67,40.44662,-3.69246,A,http://www.crtm.es,1.0,,Europe/Madrid,0
CR,C-7,14,est_90_25,25.0,chamartin,Calle de Agustín de Foxá 40,40.4721,-3.68269,A,http://www.crtm.es,1.0,,Europe/Madrid,0
CR,C-8,17,est_90_71,71.0,nuevosministerios,Calle de Raimundo Fernández Villaverde 67,40.44662,-3.69246,A,http://www.crtm.es,1.0,,Europe/Madrid,0
CR,C-8,18,est_90_25,25.0,chamartin,Calle de Agustín de Foxá 40,40.4721,-3.68269,A,http://www.crtm.es,1.0,,Europe/Madrid,0
CR,C-10,16,est_90_71,71.0,nuevosministerios,Calle de Raimundo Fernández Villaverde 67,40.44662,-3.69246,A,http://www.crtm.es,1.0,,Europe/Madrid,0
CR,C-10,17,est_90_25,25.0,chamartin,Calle de Agustín de Foxá 40,40.4721,-3.68269,A,http://www.crtm.es,1.0,,Europe/Madrid,0
CR,C-10,20,est_90_33,33.0,aeropuertot4,Ctra de Alcobendas a Barajas SN,40.49176,-3.5935599999999996,A,http://www.crtm.es,1.0,,Europe/Madrid,0
